Name,Address,Rating,Total Reviews,Latitude,Longitude,Place ID,Image File
Broadway - Pizza Bukhari,"Q3Q4+2R9, Plot 20-C Chota Khayaban-e-Bukhari, Saba Avenue, D.H.A Phase 6 Phase 6 Defence Housing Authority, Karachi",4.5,2444,24.7861888,67.0576182,ChIJUSDcX908sz4RsKdRly0CAbo,restaurant_images/ChIJUSDcX908sz4RsKdRly0CAbo.jpg
Junis Restaurant and Caf?,"1C, Sahil Commercial Street 6, D.H.A Phase 8, Defence Housing Authority, Phase 8 EXT, 8, Phase E-8, Karachi",4,377,24.7619381,67.0660167,ChIJo0gK814jsz4RFB4Yti6LEDg,restaurant_images/ChIJo0gK814jsz4RFB4Yti6LEDg.jpg
JaniferSpa,"front of cafe valintano, 6 Sahil Street 2, phase Defence Housing Authority, Karachi",,,24.7751284,67.054031,ChIJh2SVf8w9sz4RpcJXQ1NVkYc,restaurant_images/ChIJh2SVf8w9sz4RpcJXQ1NVkYc.jpg
Cafe al Medina Hotel,"plot 272, 38 Khayaban-e-Ghalib, D.H.A. Phase 8 Zone B Phase 8 Defence Housing Authority, Karachi",,,24.7705293,67.06693,ChIJfSd2LgA9sz4RZpbNejxvOu8,restaurant_images/ChIJfSd2LgA9sz4RZpbNejxvOu8.jpg
Clock Tower - The Food Bazaar,"Plot 3b Abdul Sattar Edhi Avenue, Karachi",4.2,10691,24.7783353,67.0541842,ChIJI-kfNYg9sz4R5UOz90gHBUc,restaurant_images/ChIJI-kfNYg9sz4R5UOz90gHBUc.jpg
Al Makkah hotel & fast food,"Shop 1, street 1, 6 Sea View Road, Phase Muslim Commercial Area Defence Housing Authority, Karachi",5,3,24.7794334,67.0545352,ChIJwZsWPgA9sz4RtKbyz9exL50,restaurant_images/ChIJwZsWPgA9sz4RtKbyz9exL50.jpg
k2k Cafe,"Plot # 55 C, Khayaban-e-Ittehad Road, 6 ?? ??? ?? ??? Muslim Commercial Area Phase 6 ????? ?????? ???????, ?????",3.8,29,24.7794699,67.0551091,ChIJEVkkots8sz4RFWe8fHt6UkI,restaurant_images/ChIJEVkkots8sz4RFWe8fHt6UkI.jpg
McDonald's - DHA Phase 8,"316, DHA Karachi Phase VIII Zone D Zone D Phase 8 Defence Housing Authority, Karachi",4.1,421,24.7596672,67.0723925,ChIJnV4zlNEjsz4RuWPqxTQU5-I,restaurant_images/ChIJnV4zlNEjsz4RuWPqxTQU5-I.jpg
Al Rehman Fast Food,"Q3J3+526, Sea View Road, D.H.A Phase 6 Phase 6 Defence Housing Authority, Karachi",4.4,9,24.7804112,67.0525212,ChIJ-Q-2JgA9sz4Rr4NzYsiuvsM,restaurant_images/ChIJ-Q-2JgA9sz4Rr4NzYsiuvsM.jpg
Norway Kitchen,"143 N Sahil Street 1, Muslim Commercial Area Phase 6 Defence Housing Authority, Karachi",4.6,13,24.780171,67.055141,ChIJa22qFQA9sz4RRu_B7upC8g0,restaurant_images/ChIJa22qFQA9sz4RRu_B7upC8g0.jpg
Lasani Food,"Sahil Street 1, Muslim Commercial Area Defence Housing Authority, Karachi",4.2,86,24.7802146,67.0552718,ChIJjyeznNs8sz4Rl0Y1oydfm-Y,restaurant_images/ChIJjyeznNs8sz4Rl0Y1oydfm-Y.jpg
Zaiqa Chai ????? ????,"Muslim Commercial Area, Sindh, d 45 Khayaban-e-Muslim, D.H.A Phase 6 Muslim Commercial Area Phase 6 Defence Housing Authority, Karachi",4.2,108,24.7805599,67.0554182,ChIJmVWDeNs8sz4Rd2-DVNAETi4,restaurant_images/ChIJmVWDeNs8sz4Rd2-DVNAETi4.jpg
Moonlight Snacks,"50-C, Street Number 1, Ground Floor Shop, Dha Phase 6, Muslim, Commercial Muslim Commercial Area Area, Karachi",4,4,24.7805829,67.0553899,ChIJC7RDFzw9sz4RC68dyyFwFMI,restaurant_images/ChIJC7RDFzw9sz4RC68dyyFwFMI.jpg
King Of The Pirates Cafe,"Q3J4+699, Street Number 4, D.H.A Phase 6 Muslim Commercial Area Phase 6 Defence Housing Authority, Karachi",4,1,24.7805262,67.056,ChIJjx2FTSw9sz4R10fQi0Pe-V8,restaurant_images/ChIJjx2FTSw9sz4R10fQi0Pe-V8.jpg
Lahori khabay,"Q3J4+696, Muslim Commercial Area Phase 6 Defence Housing Authority, Karachi",,,24.7805466,67.0559011,ChIJ4aYABwA9sz4RI8lUTQnrlM0,restaurant_images/ChIJ4aYABwA9sz4RI8lUTQnrlM0.jpg
50c South Beach Fry & Grill,"50c, D.H.A Phase 6 Muslim Commercial Area Phase 6 Defence Housing Authority, Karachi",4.4,10,24.7806244,67.0554991,ChIJT6o1xYo9sz4RsEklKRVeKTM,restaurant_images/ChIJT6o1xYo9sz4RsEklKRVeKTM.jpg
NO WONDER,"Shop No.1, Plot No, 48-C Street No. 1, D.H.A Phase 6 Muslim Commercial Area, Karachi",5,13,24.7806387,67.0554573,ChIJxS3HzGg9sz4RCgutp5-oKc8,restaurant_images/ChIJxS3HzGg9sz4RCgutp5-oKc8.jpg
The Trap,"Q3J4+66R, Nishant Lane 1, D.H.A Phase 6 Muslim Commercial Area Phase 6 Defence Housing Authority, Karachi",5,6,24.7806501,67.0554676,ChIJySCCpSA9sz4RNrlk7aYx5fs,restaurant_images/ChIJySCCpSA9sz4RNrlk7aYx5fs.jpg
Chai Wali,"Muslim Commercial Street 2, Muslim Commercial Area Phase 6 Defence Housing Authority, Karachi",4.5,24,24.7805666,67.0560346,ChIJ36Ac9Xk9sz4Rai3RiLifg58,restaurant_images/ChIJ36Ac9Xk9sz4Rai3RiLifg58.jpg
Kashmir food point,"No 1,Ground Floor Shop, 1 Muslim Commercial Street, Phase 6 Defence Housing Authority, Karachi",4.3,4,24.7807485,67.0554078,ChIJB8D2TAA9sz4ReWFh5Qgpjyk,restaurant_images/ChIJB8D2TAA9sz4ReWFh5Qgpjyk.jpg
Dxb Cafe & Restraunt,"Muslim Commercial Area Phase 6 Defence Housing Authority, Karachi",4,3,24.7807242,67.0556844,ChIJ5TrOuRY9sz4RqhnHc_80K0U,restaurant_images/ChIJ5TrOuRY9sz4RqhnHc_80K0U.jpg
Apna Cafe & Food Center,"plot no, 141 Muslim Commercial Street 1, D.H.A Phase 6 Muslim Commercial Area Phase 6 Defence Housing Authority, Karachi",4.3,4,24.7807387,67.0557051,ChIJP_lBYeRBsz4Rih4J8H8wDbw,restaurant_images/ChIJP_lBYeRBsz4Rih4J8H8wDbw.jpg
Sara's Kitchen,"Shop.2 , Building, 42-C Muslim Commercial Street 1, D.H.A Phase 6 Defence Housing Authority, Karachi",3,2,24.780744,67.0557032,ChIJmQ4KfQA9sz4R-d9my7oy8YI,restaurant_images/ChIJmQ4KfQA9sz4R-d9my7oy8YI.jpg
Crisp n Crunch,"Commercial, Muslim Street-2 37 Street Muslim, D.H.A Phase 6 Defence Housing Authority, Karachi",,,24.7806884,67.0560526,ChIJLaDBldY5sz4RTLsHrEJzRyA,restaurant_images/ChIJLaDBldY5sz4RTLsHrEJzRyA.jpg
New Lasani Biryani Center & Halwa Puri,"Shop 3, Building No, 37-C Muslim Commercial Street 2, D.H.A Phase 6 Defence Housing Authority, Karachi",4.7,12,24.7807011,67.056258,ChIJVywzHH49sz4RKvp6SmP3tFA,restaurant_images/ChIJVywzHH49sz4RKvp6SmP3tFA.jpg
Balochi Dumpukht Cuisine branch 2,"Q3J4+7GP, Karachi",4.5,17,24.7807224,67.0563174,ChIJxwWeYwA9sz4RtJPyeDJ92Uk,restaurant_images/ChIJxwWeYwA9sz4RtJPyeDJ92Uk.jpg
Crisp n Crunch,"Q3J4+8CW, 40-C, D.H.A Phase 6 Muslim Commercial Area Phase 6 Defence Housing Authority, Karachi",4,4,24.7807958,67.0561192,ChIJAx-BfQA9sz4RH6DUxed7CWw,restaurant_images/ChIJAx-BfQA9sz4RH6DUxed7CWw.jpg
Big Mouth,"23 C Street No 1 Muslim Commercial Phase 6, Karachi",2.6,10,24.7810412,67.0560884,ChIJjZF3OQA9sz4RMBbEV61vLLY,restaurant_images/ChIJjZF3OQA9sz4RMBbEV61vLLY.jpg
MEHFIL-e-ARBAB,"plot #E34, Shop #2 Sahil Street 1, D.H.A Phase 6 Muslim Commercial Area road, Karachi",5,3,24.7812642,67.0561432,ChIJk-t0tIc9sz4R8PXQ5JCHJqM,restaurant_images/ChIJk-t0tIc9sz4R8PXQ5JCHJqM.jpg
Khowsey 65,"Shop 33-D, near zaiqa chai and tri-fit, Khayaban-e-Muslim, street#1 Muslim Commercial Area, Karachi",4.3,12,24.7813166,67.0561094,ChIJKaOgvsM9sz4RLNxjmB9QMjI,restaurant_images/ChIJKaOgvsM9sz4RLNxjmB9QMjI.jpg
SoyMee,"shop number 13, ocean front, Coral Towers Karachi, Emaar phase 8, Karachi",4.7,13,24.7512874,67.0724413,ChIJL-fg3sgjsz4RHDz-xyaESFQ,restaurant_images/ChIJL-fg3sgjsz4RHDz-xyaESFQ.jpg
Sea Salt co,"Emaar - ocean front, Zone D Phase 8, Karachi",4,1302,24.751189,67.0726413,ChIJfbYFgVYjsz4RFtfDVc8lOnY,restaurant_images/ChIJfbYFgVYjsz4RFtfDVc8lOnY.jpg
Cafe Valentino,"Plot 7C, 6 Street 2, Phase Muslim Commercial Area Defence Housing Authority, Karachi",4.8,48,24.7820957,67.0575026,ChIJvwHl2_U9sz4R5li6pP-uU40,restaurant_images/ChIJvwHl2_U9sz4R5li6pP-uU40.jpg
Speakeasy Restaurant,"Emaar Pearl Tower Shop #6, On Promanade Walk, DHA Phase 8, Karachi",5,1,24.74904,67.0718667,ChIJAYiBO7wjsz4RTD8teAsCKRw,restaurant_images/ChIJAYiBO7wjsz4RTD8teAsCKRw.jpg
Romanzo,"Plot No.5C, Sea View Road, street No.1 Muslim Commercial Area, Karachi",4.5,217,24.7822522,67.0572874,ChIJOZdnPYA9sz4RwGnGagF9wbY,restaurant_images/ChIJOZdnPYA9sz4RwGnGagF9wbY.jpg
Chayology,"Shop 2 building, 3C Sahil Street 2, Muslim Commercial Area Phase 6 DHA karachi, Karachi",,,24.7822933,67.0572393,ChIJG8FVAnw9sz4Rj3vqKERjIOM,restaurant_images/ChIJG8FVAnw9sz4Rj3vqKERjIOM.jpg
BUNZO,"Q32F+WWR, Abdul Sattar Edhi Avenue, DHA Karachi Phase VIII Zone D Zone D Phase 8 Defence Housing Authority, Karachi",5,41,24.7523667,67.0747656,ChIJ_2ZyJQAjsz4RbQg1l7V2h3E,restaurant_images/ChIJ_2ZyJQAjsz4RbQg1l7V2h3E.jpg
Chaupal - Seaview,"Abdul Sattar Edhi Avenue, Karachi",3.9,2302,24.7848888,67.0484225,ChIJCe_NVY89sz4ROqtcGEWiO0Q,restaurant_images/ChIJCe_NVY89sz4ROqtcGEWiO0Q.jpg
The New York Pizza,"Ocean Towers, Khayaban-e-Iqbal, Karachi",4,97,24.7796495,67.06887,ChIJHfYWQrc9sz4RhxMrjC2M980,restaurant_images/ChIJHfYWQrc9sz4RhxMrjC2M980.jpg
Bloomsbury Restaurant,"C- 18 Saba Avenue, D.H.A Phase 6 Phase 6 Defence Housing Authority, Karachi",3.9,323,24.786206,67.0575925,ChIJgzFvRd08sz4RiZRWlns6-ws,restaurant_images/ChIJgzFvRd08sz4RiZRWlns6-ws.jpg
Hungry Habibi,"Shop No. 2, 14 C Khayaban-e-Bukhari, Karachi",4.4,1041,24.7866865,67.0576583,ChIJ-Ux0d7g9sz4R7dLeZmYZ134,restaurant_images/ChIJ-Ux0d7g9sz4R7dLeZmYZ134.jpg
Red Apple Bukhari,"Q3P5+J3H, Plot 14C, Street No.5, Khayaban-e-Bukhari Small, Bukhari Commercial Area Bukhari Commercial Area Phase 6 Defence Housing Authority, Karachi",4,1408,24.7867595,67.0575649,ChIJoww2WN08sz4RtTuIfpW97RQ,restaurant_images/ChIJoww2WN08sz4RtTuIfpW97RQ.jpg
Lahori Daata Restaurant (?????? ???? ???????? ),"Q3P5+M5W, Chota, Bukhari Commercial Area Phase 6 Defence Housing Authority, Karachi",4.7,3,24.7867315,67.0579582,ChIJTzoodAA9sz4Rh8mLJebRIR0,restaurant_images/ChIJTzoodAA9sz4Rh8mLJebRIR0.jpg
K Town Co.,"Building 4C, Chota Bukhari, Street # 5, D.H.A Phase 6 Bukhari Commercial Area Defence Housing Authority, Karachi",4.5,459,24.7871634,67.0569972,ChIJhQKoMl48sz4RNLUY18r8a-Y,restaurant_images/ChIJhQKoMl48sz4RNLUY18r8a-Y.jpg
Kababjees Restaurant - Do Darya,"Q34W+P9R, road, Zone C Phase 8, ?????",4.4,15152,24.7568555,67.0958814,ChIJo_gYg1gjsz4REdUO7eXHM9M,restaurant_images/ChIJo_gYg1gjsz4REdUO7eXHM9M.jpg
The New York Pizza,"Nueplex Cinamas The Place dha pahse 8 dha phase 8, 214a Khayaban-e-Shaheen, DHA Karachi Phase VIII Zone B Phase 8 Defence Housing Authority, Karachi",3.9,696,24.7794422,67.0897742,ChIJk4rTtQI9sz4Ro9p36DQodCs,restaurant_images/ChIJk4rTtQI9sz4Ro9p36DQodCs.jpg
Subway (Nueplex),"214-A Khayaban-e-Shaheen, Zone B Phase 8 Defence Housing Authority, Karachi",4.3,43,24.7795276,67.0895462,ChIJHYVj6qg8sz4RJ5gkRvjzCMU,restaurant_images/ChIJHYVj6qg8sz4RJ5gkRvjzCMU.jpg
Sajjad Restaurant,"Beach Avenue? Do Darya, Sea View Road, Zone C Phase 8 Defence Housing Authority, Karachi",4.1,8108,24.7532613,67.0900932,ChIJedjNyl4jsz4RUjQqhlzZbRs,restaurant_images/ChIJedjNyl4jsz4RUjQqhlzZbRs.jpg
Kolachi Restaurant,"Do Darya, Abdul Sattar Edhi Avenue, Karachi",4.5,27515,24.7567907,67.0950609,ChIJ43YJxhY9sz4R2sJIupecmMk,restaurant_images/ChIJ43YJxhY9sz4R2sJIupecmMk.jpg
PN Plot,"Abdul Sattar Edhi Avenue, Karachi",,,24.7562334,67.0948782,ChIJNRjID8Mlsz4RGADQkElu0Hc,restaurant_images/ChIJNRjID8Mlsz4RGADQkElu0Hc.jpg
Charcoal BBQ n Grill Restaurant,"Abdul Sattar Edhi Avenue, Zone C Phase 8 Defence Housing Authority, Karachi",4.1,3050,24.7554913,67.0937924,ChIJH7aAnFgjsz4R-qtu2wBtkX8,restaurant_images/ChIJH7aAnFgjsz4R-qtu2wBtkX8.jpg
Open Dining & Buffet Area,"Q4F2+PVR, Unnamed Road, DHA Karachi Phase VIII Zone B Zone B Phase 8 Defence Housing Authority, Karachi",4.4,19,24.7743706,67.1021526,ChIJmSJL1ng7sz4RGaJwZinYMvc,restaurant_images/ChIJmSJL1ng7sz4RGaJwZinYMvc.jpg
"Al Habib Restaurant, Do Darya","Do Darya, Abdul Sattar Edhi Avenue Road, Zone C Phase 8, ?????",4.2,1105,24.7516616,67.0886145,ChIJcwErsV4jsz4RxMsEqAiADKo,restaurant_images/ChIJcwErsV4jsz4RxMsEqAiADKo.jpg
KFC | Sea View,"Plot no DS-122 Abdul Sattar Edhi Avenue, Sea View Road, Phase 5 Ext Defence Housing Authority, Karachi",4.2,383,24.7519953,67.0865467,ChIJWZBdvXE9sz4Rj2D0ICDMudU,restaurant_images/ChIJWZBdvXE9sz4Rj2D0ICDMudU.jpg
HOTPOT Karachi,"The Place, Khayaban-e-Shaheen, Karachi",4,72,24.7792941,67.0898044,ChIJR8jFgow9sz4RMYuFNFJOr-I,restaurant_images/ChIJR8jFgow9sz4RMYuFNFJOr-I.jpg
Pathan,"The Place, Rooftop, D.H.A. Phase 8 Defence Housing Authority, Karachi",4.1,46,24.7793893,67.0897263,ChIJgXRXfQA9sz4Ra7TXYh89L6o,restaurant_images/ChIJgXRXfQA9sz4Ra7TXYh89L6o.jpg
KFC The Place Food Court,"Food Court, The Place, Khayaban-e-Shaheen, D.H.A. Phase 8 Zone B Phase 8 Defence Housing Authority, Karachi",3.8,61,24.7795314,67.0895538,ChIJpVfKmYM9sz4RVzU7WYjYeWM,restaurant_images/ChIJpVfKmYM9sz4RVzU7WYjYeWM.jpg
New Hazara Momin Bumbai Hotel ??? ????? ???? ????? ????,"Q3MP+8HJ, DHA Karachi Phase VIII Zone B Zone B Phase 8 Defence Housing Authority, Karachi",,,24.783325,67.0863859,ChIJNWpCDwA9sz4R8wwiEGs4Xhc,restaurant_images/ChIJNWpCDwA9sz4R8wwiEGs4Xhc.jpg
Das Numberi,"27 Zulfiqar Street 1, D.H.A. Phase 8 Zone B Phase 8 Defence Housing Authority, Karachi",4.3,4,24.7855724,67.0909755,ChIJXwOEQwA9sz4R4LZVOQ53dlU,restaurant_images/ChIJXwOEQwA9sz4R4LZVOQ53dlU.jpg
Yacht hive restaurant,"Q4JP+JQV, Paf Colony Korangi Creek, Karachi",3.7,9,24.7816076,67.1369181,ChIJtxgf0uw7sz4RsTzvcbB7H_Q,restaurant_images/ChIJtxgf0uw7sz4RsTzvcbB7H_Q.jpg
Shafi sea food,PAF Jetty,4.6,9,24.7850086,67.1403899,ChIJEyPdBwA7sz4Rva0_fc9rXLM,restaurant_images/ChIJEyPdBwA7sz4Rva0_fc9rXLM.jpg
Resturent,"Ibrahim Hyderi Ibrahim Hyderi, Karachi",2,2,24.7860182,67.1417955,ChIJZ4eaXFk7sz4RCcO37JBd3MM,restaurant_images/ChIJZ4eaXFk7sz4RCcO37JBd3MM.jpg
KHANSAMA,"RX97+J9Q, Bhitt Island, Karachi",5,4,24.8190875,66.9634844,ChIJKWliZQAXsz4R5KWkFdhkfD0,restaurant_images/ChIJKWliZQAXsz4R5KWkFdhkfD0.jpg
?????? ??? ?????? ???? ???? ??? ????????? Pakeeza Roll Point & Fastfood Restaurant,"RX97+M9H, Bhit island jetty, Bhitt Island, Karachi",5,2,24.8191851,66.9634865,ChIJu33vxkgXsz4RS2jI4dKyER4,restaurant_images/ChIJu33vxkgXsz4RS2jI4dKyER4.jpg
Malik umer hotel,Bhit Island,,,24.8192088,66.9637019,ChIJqb0zMQAXsz4RCnfwpSNrD4c,restaurant_images/ChIJqb0zMQAXsz4RCnfwpSNrD4c.jpg
ALLAH Badshah Hotel,"RX28+CG, Manora, Karachi",3.8,5,24.8010588,66.9661307,ChIJgRAyDAAXsz4R_JVo49SRFEc,restaurant_images/ChIJgRAyDAAXsz4R_JVo49SRFEc.jpg
Manora Sahil B.B.Q and Fastfood,"RX29+M2V, Manora, Karachi",4,4,24.8016779,66.9677404,ChIJJXhEB50Xsz4RVxunn-GWfJ8,restaurant_images/ChIJJXhEB50Xsz4RVxunn-GWfJ8.jpg
Shahzad chapli kabab,"RX29+J66, Manora, Karachi",5,1,24.8015323,66.9680272,ChIJgcEmpo0Xsz4RO4Dv_dv6beg,restaurant_images/ChIJgcEmpo0Xsz4RO4Dv_dv6beg.jpg
bolan biryani,"RX39+3HW, Manora, Karachi",4,6,24.8027472,66.968952,ChIJ7x2q8ScXsz4R9UMNtU-lD0c,restaurant_images/ChIJ7x2q8ScXsz4R9UMNtU-lD0c.jpg
Ghulam khan hotel manora,"Ketchi line near manora jetty, Karachi",4,5,24.8022529,66.9693553,ChIJPTCF24AXsz4RjkKpPlhJRs4,restaurant_images/ChIJPTCF24AXsz4RjkKpPlhJRs4.jpg
The wave,"QXXC+28J, Manora, Karachi",4.7,3,24.7975791,66.9707784,ChIJjXTofAAXsz4RWpSlgiJslF4,restaurant_images/ChIJjXTofAAXsz4RWpSlgiJslF4.jpg
Destination Beach Resort by Dreamworld,"Destination Beach Resort by Dreamworld, adjacent Varun Dev Temple, near Sandspit Beach, Karachi",4.2,850,24.7975882,66.9708642,ChIJDZdpRy8Xsz4RPQ6grwQMOLM,restaurant_images/ChIJDZdpRy8Xsz4RPQ6grwQMOLM.jpg
Manora Beach,"QXWC+WM6, Beach Access Way, Manora, Karachi",4.4,33,24.7974744,66.9711941,ChIJ284KX84Xsz4RRHr4y5OJw2Q,restaurant_images/ChIJ284KX84Xsz4RRHr4y5OJw2Q.jpg
Azeem Abassi Hotel,"QXXC+6W7, Manora Drive, Manora, Karachi",5,4,24.7980477,66.972282,ChIJ9Qyyq1AXsz4RES2wwowPPxI,restaurant_images/ChIJ9Qyyq1AXsz4RES2wwowPPxI.jpg
ZS Fast Food,"QXWC+WM4, Manora, Karachi",5,2,24.7974589,66.9718938,ChIJq3XxBAAXsz4RZp0XH5YwQZI,restaurant_images/ChIJq3XxBAAXsz4RZp0XH5YwQZI.jpg
Bismillah sea food,"RX9G+774, Port Of Karachi, Karachi",4.5,2,24.8182221,66.9756365,ChIJB6VpT4AXsz4Rkt51t8K4h9U,restaurant_images/ChIJB6VpT4AXsz4Rkt51t8K4h9U.jpg
Mashallah Fish And Bar B.Q.,"RX9G+775, Port Of Karachi, Karachi",4.2,344,24.8181374,66.9757239,ChIJOwhK-z8Wsz4RmFQPXoBauuY,restaurant_images/ChIJOwhK-z8Wsz4RmFQPXoBauuY.jpg
New Peshawari Hotel (Alam Niazi),"RX9G+886, Kemari fish street Kemari, Kemari - Manora Ferry, Port Of Karachi, Karachi",4.6,5,24.8182783,66.9757713,ChIJU2En6PsXsz4Rmg8fdzWub60,restaurant_images/ChIJU2En6PsXsz4Rmg8fdzWub60.jpg
Yasin and Brothers Fish Point,"RX9G+788, Unnamed Road, Port Of Karachi, Karachi",5,1,24.8181546,66.9758187,ChIJIfTNoeQXsz4RWaGxPr1XeHg,restaurant_images/ChIJIfTNoeQXsz4RWaGxPr1XeHg.jpg
Agha sea food,"Kemari, fish street, Kemari, Karachi",4.3,76,24.8183247,66.9757652,ChIJBf1MZKwXsz4RX96LI1-TRCE,restaurant_images/ChIJBf1MZKwXsz4RX96LI1-TRCE.jpg
????? ?????????Harbour Restaurant,"RX9G+88V, Mules Street, Karachi",2,1,24.8183744,66.9757824,ChIJ1bHc76AXsz4RDD36rcU8X9M,restaurant_images/ChIJ1bHc76AXsz4RDD36rcU8X9M.jpg
Pervaiz Khan Seafood,"RX9G+983, Port Of Karachi, Karachi",4.6,8,24.8183945,66.9758072,ChIJ48KO-z8Wsz4RINS8KkuXcbI,restaurant_images/ChIJ48KO-z8Wsz4RINS8KkuXcbI.jpg
Arabian Sea Food,"RX9G+98G, Mules Street, Karachi",5,4,24.8184347,66.9758233,ChIJ8R2AznQXsz4RUK5p9LJtp7k,restaurant_images/ChIJ8R2AznQXsz4RUK5p9LJtp7k.jpg
Niazi Fish Bar B Q,"W11-stop, Karachi",4.1,106,24.8185467,66.9758465,ChIJ9dTfpHQXsz4RcQIVrPVJdxQ,restaurant_images/ChIJ9dTfpHQXsz4RcQIVrPVJdxQ.jpg
Bangali Fish Maker,"RX9G+F8V, Port Of Karachi, Karachi",4.4,18,24.8187421,66.9757858,ChIJEyNJWBUWsz4RcfOa_fVGjuI,restaurant_images/ChIJEyNJWBUWsz4RcfOa_fVGjuI.jpg
Rashid Seafood,"East Wharf Keamari, Karachi",4.3,12419,24.8189435,66.9757143,ChIJVYEiq2oWsz4RJlOADiYJhEM,restaurant_images/ChIJVYEiq2oWsz4RJlOADiYJhEM.jpg
Keamari Sea Food,"Port Of Karachi, Karachi",4.4,980,24.8191209,66.9757669,ChIJnVzgNoMXsz4Rc1mTc93ZGu4,restaurant_images/ChIJnVzgNoMXsz4Rc1mTc93ZGu4.jpg
FOOD AND PARTY,"QXWF+P42, Karachi",3.5,2,24.796757,66.9727718,ChIJg3xSUM0Xsz4Rsr5ylB1WWLw,restaurant_images/ChIJg3xSUM0Xsz4Rsr5ylB1WWLw.jpg
Shaheen Sea Food,"QXWF+M4V, Manora, Karachi",3.7,3,24.7967461,66.972804,ChIJdXDPmmIXsz4RBiTDeOUqbdk,restaurant_images/ChIJdXDPmmIXsz4RBiTDeOUqbdk.jpg
Pizza wala,"MOQ-2 Napier Mole Road, East Wharf, Karachi",3.7,6,24.8199724,66.9760868,ChIJERbkidcXsz4RVnVclRXyabE,restaurant_images/ChIJERbkidcXsz4RVnVclRXyabE.jpg
Prown karachi seafood,"Mulies Mansion, Street Sultan center, Karachi",,,24.8193348,66.976414,ChIJIVv4tW4Xsz4RNxIKGuV-OtY,restaurant_images/ChIJIVv4tW4Xsz4RNxIKGuV-OtY.jpg
Foodies Dockyard,"RXJC+525, West Wharf, Karachi",3,3,24.831534,66.9694876,ChIJgfWsZgAXsz4R442zkiNmu3E,restaurant_images/ChIJgfWsZgAXsz4R442zkiNmu3E.jpg
Karachi Broast,"R268+QW4, Block 2 Clifton, Karachi",4.2,1236,24.8118804,67.0173389,ChIJOzCfiZk9sz4RLVSGhiJKOr8,restaurant_images/ChIJOzCfiZk9sz4RLVSGhiJKOr8.jpg
Del Frio,"plot number 7, Com3 Tower, com3 mall, Service Lane, Karachi",4.1,2880,24.8165817,67.0204827,ChIJ030dr8A9sz4RjMy6U_v7ClI,restaurant_images/ChIJ030dr8A9sz4RjMy6U_v7ClI.jpg
Irish Night,"Bunglow D, 151 Astrik Street, Block A Clifton, Karachi",4.1,569,24.8171125,67.0230563,ChIJR8AWe709sz4RkTpK6S-vE4Q,restaurant_images/ChIJR8AWe709sz4RkTpK6S-vE4Q.jpg
Pizza Deals in Karachi at Itzza Pitzza,"Shop 13, Block 5, Boatbasin, Block 5 Clifton, Karachi",3.9,77,24.8254785,67.0254429,ChIJj4ZBmLc9sz4RRvjDKjx0_Q0,restaurant_images/ChIJj4ZBmLc9sz4RRvjDKjx0_Q0.jpg
Pizza Crust,"Shop No 17, Bank Road, Block 5 Clifton, Karachi",3.8,364,24.8255012,67.0254565,ChIJa_U9nr89sz4RnAJ6iKdXEa0,restaurant_images/ChIJa_U9nr89sz4RnAJ6iKdXEa0.jpg
Bar BQ Tonight Clifton,"5/1, Boating Basin, Clifton, block-5 Block 5 Clifton, Karachi",4.3,24810,24.816051,67.0211821,ChIJfZw265c9sz4RCWTrG6kriHQ,restaurant_images/ChIJfZw265c9sz4RCWTrG6kriHQ.jpg
Afridi Night,"Clifton, building, near Sea Rock Alley, Block 1 Clifton, Karachi",3.9,70,24.8130708,67.0056159,ChIJy_GQxHE9sz4RP71ScYjwMaw,restaurant_images/ChIJy_GQxHE9sz4RP71ScYjwMaw.jpg
Shahi Khyber Shinwari & Barbeque Restaurant,"R274+76Q, Block 1 Clifton, Karachi",4.2,287,24.8132182,67.0056062,ChIJeSu3RY89sz4RPgFoc828IVE,restaurant_images/ChIJeSu3RY89sz4RPgFoc828IVE.jpg
Pizza Plus,"Shop#7 B, 66, Block 1 Clifton, Karachi",,,24.8155708,67.0003111,ChIJ-zQPDgA9sz4Rpga37LGAsBI,restaurant_images/ChIJ-zQPDgA9sz4Rpga37LGAsBI.jpg
"Babu Fries, Burger & Rolls","no. 4, Ruby Beach Pride, Babu Food Point, L, near The Palm Banquet and, 1189, Block-1 Shireen Jinnah Colony Clifton, Karachi",5,2,24.814449,66.9951453,ChIJKaNnutEXsz4RQAkLKsf_z-Y,restaurant_images/ChIJKaNnutEXsz4RQAkLKsf_z-Y.jpg
Al Noor Biryani Cafe kimari,"Plot No A-24 BLK-01, Clifton, Karachi",5,2,24.8175781,66.9987454,ChIJD5d3JFEXsz4RBo00qyVtzMI,restaurant_images/ChIJD5d3JFEXsz4RBo00qyVtzMI.jpg
Bismillah biryani center,"near meezan bank, Muhammadi chock, near meezan bank, Shireen Jinnah Colony, Karachi",,,24.8177761,67.0027985,ChIJUxG3FqI9sz4RPVobCEHi6as,restaurant_images/ChIJUxG3FqI9sz4RPVobCEHi6as.jpg
Special Salateen Hotel and BBQ,"RX9X+4M2, Block 1 Clifton, Karachi",4,179,24.8177636,66.9991449,ChIJW9ZGEIo9sz4RT88NUGr157g,restaurant_images/ChIJW9ZGEIo9sz4RT88NUGr157g.jpg
Ghani Fish point,"Shahrah-e-Ghalib Road, Shireen Jinnah Colony B-1 Clifton, Karachi",5,1,24.817508,67.0042248,ChIJTXt7t849sz4RiKy7YFEZRRw,restaurant_images/ChIJTXt7t849sz4RiKy7YFEZRRw.jpg
Qari Special Biryani? ???? ?????? ??????,"Plot ST 46, Block-1 Shireen Jinnah Colony Block 1 Clifton, Karachi",5,1,24.8158885,66.9952656,ChIJi84tYeMXsz4Rkf5qQhg01YI,restaurant_images/ChIJi84tYeMXsz4Rkf5qQhg01YI.jpg
United Pizza Restaurant Shireen Colony,"Plot B, Shop #3, near Shah G Chowk, 10 Shahrah-e-Ghalib Road, Shiireen",4.4,32,24.8174848,67.0046121,ChIJgauIaCA9sz4Rdu4MmMryvhY,restaurant_images/ChIJgauIaCA9sz4Rdu4MmMryvhY.jpg
Cafe Al-Jadoon & B.B.Q,"near Clifton Medical Centre, 1, Block-1 Shireen Jinnah Colony Block 1 Clifton, Karachi",4.2,829,24.8178552,66.998514,ChIJS3k1XQAXsz4Rt2y6N1Y0VD8,restaurant_images/ChIJS3k1XQAXsz4Rt2y6N1Y0VD8.jpg
Haji Muhammad Khan Restaurant ???? ???? ??? ????????,"R293+64X, Block 1 Clifton, Karachi",4.5,31,24.8181063,67.0028472,ChIJM5nLyvA9sz4RpFHJuWv0kMI,restaurant_images/ChIJM5nLyvA9sz4RpFHJuWv0kMI.jpg
Man Pasand Sweets And Bekars,"R293+4P7, Block 1 Clifton, Karachi",5,1,24.8177868,67.0043096,ChIJy1_a3y89sz4RteZ1GWjbVdU,restaurant_images/ChIJy1_a3y89sz4RteZ1GWjbVdU.jpg
Mashallah dil Pasand restaurant,Karachi,5,1,24.8179723,67.0044898,ChIJzeHqAko9sz4RyhNCFH1x_PA,restaurant_images/ChIJzeHqAko9sz4RyhNCFH1x_PA.jpg
Haji Biryani Centre,Karachi,4.1,38,24.8180625,67.0045625,ChIJWZfj-8w9sz4RDGN2pdpaj-E,restaurant_images/ChIJWZfj-8w9sz4RDGN2pdpaj-E.jpg
Iicy spicy restorant,"R293+7Q6, Shireen Jinnah Colony Block 1 Clifton, Karachi",,,24.8181715,67.0043928,ChIJLzb4LwA9sz4R9qljKM2Qd40,restaurant_images/ChIJLzb4LwA9sz4R9qljKM2Qd40.jpg
Al-Hafeez Biryani,"RX9X+CJ8, Block 3 Clifton, Karachi",,,24.8185277,66.9990755,ChIJaXGzJwA9sz4RUo9S63RjJUE,restaurant_images/ChIJaXGzJwA9sz4RUo9S63RjJUE.jpg
Chicken shop,"R293+HGW, Block 1 Clifton, Karachi",3,1,24.8189793,67.0038182,ChIJ3Z7Qfj09sz4RpKMYJ6YD8qA,restaurant_images/ChIJ3Z7Qfj09sz4RpKMYJ6YD8qA.jpg
Al rehman biryani Zia Uddin Branch,"near Clifton Ziauddin hospital, Zone C - Block 7 area, Karachi",4.1,15,24.8180724,67.0067002,ChIJK430bGo9sz4Rusn1LjcjevU,restaurant_images/ChIJK430bGo9sz4Rusn1LjcjevU.jpg
New Queyta Bismillah Hotel,"RX9V+2VV, Block-1 Block 1 Clifton, Karachi",,,24.8176027,66.9946698,ChIJ1-yJRnQXsz4RSlkVCA_CrsQ,restaurant_images/ChIJ1-yJRnQXsz4RSlkVCA_CrsQ.jpg
"Al-Hamza Chicken Soup, Chinese Soup & Special Yakhni Stall","R294+7QJ, Block 6 Clifton, Karachi",5,3,24.8182018,67.0068256,ChIJWzH4n6M9sz4RzpcuqQF5bzM,restaurant_images/ChIJWzH4n6M9sz4RzpcuqQF5bzM.jpg
Janan Hotel,"Port Truck Stand, Karachi",3.7,3,24.8173921,66.9936191,ChIJ6UDrA2gXsz4R3v0rN-gnrEg,restaurant_images/ChIJ6UDrA2gXsz4R3v0rN-gnrEg.jpg
???? ?? ????? ??? ???? since1996,"RX9W+H2F, Shahrah-e-Ghalib Road, Shireen Jinnah Colony Block 1 Clifton, Karachi",4.4,7,24.8189324,66.995045,ChIJcYv0e6EXsz4RuYegOuLpk1Y,restaurant_images/ChIJcYv0e6EXsz4RuYegOuLpk1Y.jpg
Keamari,"RXCW+8GH, Bangash Road, Bhutta Village, Karachi",3.7,3,24.8208054,66.9963568,ChIJ-7SjXT4Xsz4RaV0n_8KIKzA,restaurant_images/ChIJ-7SjXT4Xsz4RaV0n_8KIKzA.jpg
Al mudassir chicken biryani,"40 Bangash Road, Bhutta Village, Karachi",5,2,24.8207626,66.9951812,ChIJnbDTf6sXsz4R4XJIIpVAIlQ,restaurant_images/ChIJnbDTf6sXsz4R4XJIIpVAIlQ.jpg
Mashallah keamari fast food & pizza branch 2,"RXCV+6R6, Bhutta Village, Karachi",4.2,13,24.8205437,66.9945183,ChIJKc6JmfUXsz4RA3kbIIXysQQ,restaurant_images/ChIJKc6JmfUXsz4RA3kbIIXysQQ.jpg
Mashallah Chicken Center,"R2C2+X48, Gulshan-e-Sikandarabad Gulshan e Sikandarabad, Karachi",,,24.8224239,67.000323,ChIJ9VTYo-o9sz4RMD1UEax8X7A,restaurant_images/ChIJ9VTYo-o9sz4RMD1UEax8X7A.jpg
Muhammad munir chapli kabab shop,Karachi,5,3,24.8210259,66.9949006,ChIJ75iBOPc9sz4RWZITxmloLf8,restaurant_images/ChIJ75iBOPc9sz4RWZITxmloLf8.jpg
Imran kaliji cornor,"RXCV+FW3, Bangash Road, Block 3 Keamari, Karachi",4.1,19,24.8211456,66.9947817,ChIJkwPd-UcXsz4R_ySeYGkp0ZY,restaurant_images/ChIJkwPd-UcXsz4R_ySeYGkp0ZY.jpg
Shahbaz Khan YousufZai,"1, Karachi",5,2,24.819592,67.0102738,ChIJOxq-bRk9sz4Ro7feDfU8ZI0,restaurant_images/ChIJOxq-bRk9sz4Ro7feDfU8ZI0.jpg
Shah G hotel,"Street No 1, Umer Khan Road, Bhutta Village, Karachi No.7? BIIB112/1, Bhutta Village, Karachi",4.6,36,24.8215179,66.994772,ChIJ3zRchykXsz4RhNUKZQXS3lQ,restaurant_images/ChIJ3zRchykXsz4RhNUKZQXS3lQ.jpg
Super Cafe AL Jadoon,"RXCV+HRJ, Massan Road, Bhutta Village, Karachi",4.2,6,24.8214686,66.9945256,ChIJ8ReeGBMXsz4RZPuuE1dhPbE,restaurant_images/ChIJ8ReeGBMXsz4RZPuuE1dhPbE.jpg
Naveedmurad Tap toys cosmetic store,"Subhanallah Road, Bhutta Village, kemare",5,1,24.8227038,66.9971482,ChIJ1YK6M0gXsz4RDo2OFwvBHlU,restaurant_images/ChIJ1YK6M0gXsz4RDo2OFwvBHlU.jpg
Friends Shawarma spot,"R2C5+MG5, Gulshan-e-Sikandarabad Gulshan e Sikandarabad, Karachi",,,24.8216401,67.0088443,ChIJ4QyGRgA9sz4RmTpaRidvu1k,restaurant_images/ChIJ4QyGRgA9sz4RmTpaRidvu1k.jpg
Df khaane,"RXCV+Q7C, Bhutta Village,keamari Karachi, Karachi City, Bhutta Village, Karachi",4.2,6,24.8219499,66.993139,ChIJhVnvKrIXsz4RCE_p-kSHsc4,restaurant_images/ChIJhVnvKrIXsz4RCE_p-kSHsc4.jpg
Ali Jan restaurant,"R2F5+26C, 60 Feet Road, Block 5 Gulshan e Sikandarabad, Karachi",5,1,24.8225683,67.0080778,ChIJD6GeeJY9sz4RUu29WPdAIcU,restaurant_images/ChIJD6GeeJY9sz4RUu29WPdAIcU.jpg
Afridi Inn Clifton,Karachi,4,523,24.8026633,67.0312387,ChIJS3n6qwk9sz4RhqkFFIz2Xks,restaurant_images/ChIJS3n6qwk9sz4RhqkFFIz2Xks.jpg
Subway,"R2GJ+R33, Sunset Boulevard Road, Block 5 Clifton, Karachi",4.3,879,24.8270078,67.0301578,ChIJa4Ezn7g9sz4R-IiEcOMv-Jo,restaurant_images/ChIJa4Ezn7g9sz4R-IiEcOMv-Jo.jpg
Subway,"Khayaban-e-Shahbaz, Shahbaz Commercial Area Phase 6 Defence Housing Authority, Karachi",4.3,767,24.808035,67.061453,ChIJ63Nnrfc8sz4RcvFAq0IV6L4,restaurant_images/ChIJ63Nnrfc8sz4RcvFAq0IV6L4.jpg
Nawab's Dynasty Restaurant,"Plot-1C, lane- 1, Zamzama Commercial Area Zamzama Commercial Area Defence V DHA, Karachi, Karachi",4,1889,24.8172555,67.0430911,ChIJiTmxnq09sz4R3wklaA2TD34,restaurant_images/ChIJiTmxnq09sz4R3wklaA2TD34.jpg
Daily Dubai Restaurant,"57-C 10th Badar Commercial Street, ?????",4.2,4295,24.7972196,67.0442304,ChIJV345wwI9sz4RMIueN-jzAFM,restaurant_images/ChIJV345wwI9sz4RMIueN-jzAFM.jpg
Sindh Sweets and Bakers,"Plot # C-5, off Khayaban-e-Shamsheer, Stadium Lane 2, DHA Phase 5, Karachi",4.5,290,24.8143384,67.0494007,ChIJwRJUnlQ8sz4RSA5AWiVDbss,restaurant_images/ChIJwRJUnlQ8sz4RSA5AWiVDbss.jpg
Hanifia - Khadda Market DHA,"Shop No. 3, Khayabane-Shamsheer, Lane 4, Khadda Market, Stadium Commercial Area Defence V Defence Housing Authority, Karachi",4.1,275,24.8131551,67.0482878,ChIJFwwtnFQ8sz4Ri5nXMR00JvY,restaurant_images/ChIJFwwtnFQ8sz4Ri5nXMR00JvY.jpg
rowtisserie,"off Khayaban-e-Shamsheer, 8-C 14th Street, DHA Phase 5, Karachi",4.3,977,24.8130283,67.0484619,ChIJBaY-z1U8sz4R5HIRpCnlyOA,restaurant_images/ChIJBaY-z1U8sz4R5HIRpCnlyOA.jpg
Big Bash DHA,"25C Stadium Lane 1, DHA Phase 5 Defence Housing Authority, Karachi",4.1,1913,24.8140982,67.0510767,ChIJPT2T9VM8sz4RrU-iGCrReXo,restaurant_images/ChIJPT2T9VM8sz4RrU-iGCrReXo.jpg
BabaFoods Khayaban-e-Shamsheer,"5-A, Khayaban-e-Shamsheer, Phase IV Stadium Commercial Area Defence V Defence Housing Authority, Karachi",3.7,3,24.8134252,67.0483294,ChIJ5-R0nlQ8sz4RR00n8MDqNGk,restaurant_images/ChIJ5-R0nlQ8sz4RR00n8MDqNGk.jpg
Hot N Spicy Khadda Market,"DHA Phase 5 Stadium Commercial Area Defence V Defence Housing Authority, Karachi",4.1,5707,24.8139375,67.0489375,ChIJsYntfVM8sz4Rx_mlfspoyvo,restaurant_images/ChIJsYntfVM8sz4Rx_mlfspoyvo.jpg
MING COURT,"R372+R43, Stadium Commercial Area Defence V gulshan karachi, Karachi",4,707,24.8145175,67.0502864,ChIJgyoKZFQ8sz4RDYDAsewEPzY,restaurant_images/ChIJgyoKZFQ8sz4RDYDAsewEPzY.jpg
Baklava Palace,"Shop #6-C, Khadda Market, Lane #1 ?????? ?????, Stadium Commercial Area, ?????",4.3,274,24.8144949,67.0494954,ChIJSdUgdlM8sz4R8OrQ0HkyTQc,restaurant_images/ChIJSdUgdlM8sz4R8OrQ0HkyTQc.jpg
Pizza Point,"17 Khayaban-e-Shamsheer, DHA Phase 5 Stadium Commercial Area Defence V Defence Housing Authority, Karachi",3.8,704,24.8143997,67.0490799,ChIJ2__HcFM8sz4RCfCeW3jNUzU,restaurant_images/ChIJ2__HcFM8sz4RCfCeW3jNUzU.jpg
Cafeela DHA,"Main Shahbaz Commercial Area Shahbaz Commercial Area Phase 6 Defence Housing Authority, Karachi",4.2,1980,24.8066658,67.0608919,ChIJrTFURvY8sz4REzlMXc1B5xA,restaurant_images/ChIJrTFURvY8sz4REzlMXc1B5xA.jpg
Lals Patisserie - Khy-e-Shahbaz,"5-C, Khayaban-e-Shahbaz, Karachi",4.2,1261,24.8081583,67.0615859,ChIJC7yos_c8sz4RgXUjUVtyAqo,restaurant_images/ChIJC7yos_c8sz4RgXUjUVtyAqo.jpg
Milano Pizza & Fast Food,"Shop No 26?C, 4th Zamzama Lane, Zamzama Commercial Area Askari Villas 2 Defence V, Karachi",4.1,529,24.8163357,67.0414651,ChIJMQhDz609sz4R7GjrbarWLlg,restaurant_images/ChIJMQhDz609sz4R7GjrbarWLlg.jpg
KFC - Khayaban e Shahbaz,"Plot #2 C, Shahbaz Lane # 2, Phase 6 ????? ?????? ???????, ?????",4.2,2553,24.8097114,67.0630066,ChIJ6RK1IvU8sz4RjaB9bRTYCuI,restaurant_images/ChIJ6RK1IvU8sz4RjaB9bRTYCuI.jpg
KFC - 26th Street Defence,"21-C, Street?, 26th Street, Badar Commercial Area Defence V Defence Housing Authority, Karachi",4.1,5577,24.7998451,67.0471801,ChIJLzoohf08sz4R1sk3DwFDRI4,restaurant_images/ChIJLzoohf08sz4R1sk3DwFDRI4.jpg
Domino's Pizza | Zamzama,"Ground floor, Mall square, Shop # 9, Zamzama Boulevard, Clifton, Karachi",4.1,889,24.8171997,67.0403045,ChIJvT3IB649sz4RtaEXQYpy1R8,restaurant_images/ChIJvT3IB649sz4RtaEXQYpy1R8.jpg
Frutti 5 Cafe,"R29R+647, Zamzama Commercial Area Defence V, Karachi",5,2,24.8180272,67.0403029,ChIJxSvj_rE9sz4RUodO8uJBVig,restaurant_images/ChIJxSvj_rE9sz4RUodO8uJBVig.jpg
Biryani Centre,"plot no, 12-C 26th Commercial Street, DHA Phase 5 Tauheed Commercial Area Defence V Defence Housing Authority, Karachi",3.6,1699,24.8078048,67.037414,ChIJPSxzyak9sz4RYzW5d6DayVo,restaurant_images/ChIJPSxzyak9sz4RYzW5d6DayVo.jpg
Khatri King Foods (Badar commercial DHA phase 5),"16c Badar Commercial Street 2, Karachi",4.2,63,24.7984161,67.047219,ChIJYaf6fQI9sz4R6aDdIadGqD0,restaurant_images/ChIJYaf6fQI9sz4R6aDdIadGqD0.jpg
The Soiree,"R2FW+7QM, Clifton Street Number 2, Lower Gizri Gizri, Karachi",4.5,25,24.8232034,67.0469351,ChIJId5Ctkw8sz4Rlmjy9i89JwE,restaurant_images/ChIJId5Ctkw8sz4Rlmjy9i89JwE.jpg
FLOC - for the love of coffee,"Plot # 8C, 10th Commercial Lane, DHA Phase 5 Zamzama Commercial Area, Karachi",4.1,1531,24.8188218,67.0394046,ChIJ2WyJ7rE9sz4RmyI5FQB9FUY,restaurant_images/ChIJ2WyJ7rE9sz4RmyI5FQB9FUY.jpg
Sohny Sweets and Bakers 2000,"Badar Commercial Street 10, Badar Commercial Area Defence V Defence Housing Authority, Karachi",4.1,709,24.7976865,67.0454644,ChIJ2xYhlgI9sz4RFckEbg3z0xE,restaurant_images/ChIJ2xYhlgI9sz4RFckEbg3z0xE.jpg
Mr. Burger Badar Commercial,"Street 5, Badar Commercial Area, Karachi",4.1,547,24.7975865,67.0455424,ChIJ-cCRj_08sz4RHYQvKgrPJwk,restaurant_images/ChIJ-cCRj_08sz4RHYQvKgrPJwk.jpg
Hot-N-Crispy,"Badar Commercial Street 10, Badar Commercial Area Defence V Defence Housing Authority, Karachi",4,353,24.7975645,67.0445448,ChIJRbCT6QI9sz4RXAARvq308qs,restaurant_images/ChIJRbCT6QI9sz4RXAARvq308qs.jpg
E Street Mews Cafe,"F42 E Street, Block 4 Block 4 Clifton, Karachi",4.1,1623,24.8080764,67.0351726,ChIJeXOheqg9sz4R65iW0t7NwB8,restaurant_images/ChIJeXOheqg9sz4R65iW0t7NwB8.jpg
Chop Chop Wok,"Q2WW+G6C, 57-C Khayaban-e-Badar, DHA Phase 5 Badar Commercial Area Defence V Defence Housing Authority, Karachi",4.3,3388,24.796264,67.045499,ChIJxYwsswI9sz4RZQVW8_NIqC4,restaurant_images/ChIJxYwsswI9sz4RZQVW8_NIqC4.jpg
Casa Villa,"Plot D 74, Clifton Block 4 Of, 26th Street, Block 4 Clifton, Karachi",4.1,1087,24.80761,67.0343765,ChIJ9SlveKg9sz4RGD6em4cJbF0,restaurant_images/ChIJ9SlveKg9sz4RGD6em4cJbF0.jpg
Subway,"Q2WW+F38, Saba Avenue, Badar Commercial Area Badar Commercial Area Defence V Defence Housing Authority, Karachi",4.2,319,24.7961573,67.0452132,ChIJa_stSx09sz4RKDVZ6ZvmUbc,restaurant_images/ChIJa_stSx09sz4RKDVZ6ZvmUbc.jpg
Hot N Spicy Restaurant,"26c Khayaban-e-Rahat, Karachi",4.2,2812,24.8097047,67.0694615,ChIJT5icOfU8sz4ROFPR5wRwMvM,restaurant_images/ChIJT5icOfU8sz4ROFPR5wRwMvM.jpg
Evergreen Cafe,"45-C, 45c Khayaban-e-Seher, Shahbaz Commercial Area Phase 6 Defence Housing Authority, Karachi",4.3,1482,24.7940455,67.0490887,ChIJlbeaRuM8sz4RBcsOjqEDYMo,restaurant_images/ChIJlbeaRuM8sz4RBcsOjqEDYMo.jpg
The White Biryani,"22c Rahat Commercial Lane 2, Karachi",4.1,1389,24.8091267,67.0696469,ChIJh6lSLvU8sz4RqwsXZv6vzrY,restaurant_images/ChIJh6lSLvU8sz4RqwsXZv6vzrY.jpg
"14th Street Pizza Co. | Khayaban-e-Nishat, DHA","3-C Nishat Lane-2, Khayaban-e-Nishat, D.H.A Phase 6 Defence Housing Authority, Karachi",4.4,1397,24.8005414,67.0695655,ChIJoQSfdOw8sz4RlAm0dl6jFm4,restaurant_images/ChIJoQSfdOw8sz4RlAm0dl6jFm4.jpg
Spicy One,"1, plot#18, Shop#1 chapal arcade, opposite hyperstar, Sea View Road, Block 4 Clifton, Karachi",4.1,448,24.8029798,67.0307185,ChIJu0t6pQk9sz4RVn6mvCxtEtQ,restaurant_images/ChIJu0t6pQk9sz4RVn6mvCxtEtQ.jpg
AllerFree Foods,"Shop. No. 3, Mono Arcade, Block 9 Clifton, Karachi",3.9,124,24.8258411,67.0361654,ChIJfzmQobc9sz4RiU_KrTU4QW8,restaurant_images/ChIJfzmQobc9sz4RiU_KrTU4QW8.jpg
OPTP - Dolmen Mall Clifton,"Dolmen Mall, Karachi",3.8,75,24.8010999,67.0312116,ChIJ0ZF2oQk9sz4Rsae6xsZTK7w,restaurant_images/ChIJ0ZF2oQk9sz4Rsae6xsZTK7w.jpg
Broadway Pizza - Clifton,"Khayaban-e-Iqbal, Karachi",4.5,4383,24.8263772,67.0356217,ChIJs5halrc9sz4RKokTo498Jpk,restaurant_images/ChIJs5halrc9sz4RKokTo498Jpk.jpg
Subway,"R22H+QW2, Dolmen Mall, Sea View Road, Block 4 Clifton, Karachi",3.7,34,24.8018888,67.0297504,ChIJi6MkoQk9sz4RljLOh9CuGmU,restaurant_images/ChIJi6MkoQk9sz4RljLOh9CuGmU.jpg
Maxims .Restaurant,"A9, hassan homes, opposite nehr-e-khayyam, 5 ???? ?????? ?????, ?????",3.9,506,24.8254121,67.0330682,ChIJe2T5Sbg9sz4RS9H6R-d0OHc,restaurant_images/ChIJe2T5Sbg9sz4RS9H6R-d0OHc.jpg
Xander's DHA Bukhari,"48-C, Bukhari Commercial, Lane 13, Main Khayaban-e-Shujaat, Bukhari Commercial Area Phase 6 Defence Housing Authority, Karachi",4.3,3501,24.7912768,67.0644156,ChIJ6TbLBe08sz4RPCw74iFWLnc,restaurant_images/ChIJ6TbLBe08sz4RPCw74iFWLnc.jpg
The East End,"Plot CC? 2 Khaliq-uz-Zaman Rd, behind Eid Ghaa, Park Clifton?, Karachi",4.3,1201,24.8305576,67.0384943,ChIJKQDwEGY-sz4RzrX3pKlr9Jk,restaurant_images/ChIJKQDwEGY-sz4RzrX3pKlr9Jk.jpg
Jeddah Biryani Food Center,"Boat Basin Branch, Shop # 40-43, Commercial Sub Plot # FL-7/C/4 of Plot #, 7, Block No. 5, Shop#4, Shopping Arcade, Video Market,, Block 5 Clifton, Karachi",4,1867,24.8271912,67.0335485,ChIJdWbREbg9sz4RRdFIS4TY5Ns,restaurant_images/ChIJdWbREbg9sz4RRdFIS4TY5Ns.jpg
Tipu Burger & Broast,"Clifton Center, Shop No 1, Clifton Shopping Arcade, Bank Road, Block 5 Clifton, Karachi",4.2,3797,24.8272548,67.0332564,ChIJIzrvDbg9sz4Rnbxc3m6_a3o,restaurant_images/ChIJIzrvDbg9sz4Rnbxc3m6_a3o.jpg
CLOUD NAAN,"Shop No 4 & 5, Plot 5-E, 1 29th Street, Bokhari Commerical Street 1, ?????",4.1,4633,24.7881006,67.0583952,ChIJjQ3A5ec8sz4RE1CDj5KBHHU,restaurant_images/ChIJjQ3A5ec8sz4RE1CDj5KBHHU.jpg
Burridos,"Shop no. 3, Plot no. 1C, Street no. 2, Bukhari Commercial Area Phase 6 Defence Housing Authority, Karachi",4.2,585,24.7877205,67.0576487,ChIJH4xa5ec8sz4Rhnk7Pz_0Xb0,restaurant_images/ChIJH4xa5ec8sz4Rhnk7Pz_0Xb0.jpg
SIAM EXPRESS - Authentic Thai Cuisine (Takeaway & Delivery only),"Phase 2 Defence Housing Authority, Karachi",4.2,74,24.8342553,67.0553927,ChIJxTPQEwA9sz4Ryy8v90pEojs,restaurant_images/ChIJxTPQEwA9sz4Ryy8v90pEojs.jpg
Cool Inn,"R2GJ+P8Q, Block 5 Clifton, Karachi",4.1,1923,24.8268259,67.0308733,ChIJ20hvhbg9sz4R_RjeG4U_mLs,restaurant_images/ChIJ20hvhbg9sz4R_RjeG4U_mLs.jpg
Ginsoy - Shahbaz HQ,"Ground Floor, 46-1 Khayaban-e-Shahbaz, D.H.A Phase 6 Shahbaz Commercial Area Phase 6 Defence Housing Authority, Karachi",4.3,5064,24.7946726,67.0484965,ChIJ0U1Nqfc8sz4RZKRn7vSSCGA,restaurant_images/ChIJ0U1Nqfc8sz4RZKRn7vSSCGA.jpg
Roll Inn Clifton,"Shop 19-20, Hashoo Terrace, Block 5 Clifton, Karachi",4,1122,24.826862,67.0304111,ChIJtcxHnLg9sz4R_B-LXU62j0s,restaurant_images/ChIJtcxHnLg9sz4R_B-LXU62j0s.jpg
Rajdhani Delights,"2, Marine Pride, Khayaban-e-Iqbal Road, Karachi",4.2,2943,24.8298751,67.0336925,ChIJ8eLe2sc9sz4RFyZFaYTL-XM,restaurant_images/ChIJ8eLe2sc9sz4RFyZFaYTL-XM.jpg
The Burger Shack,"Sehar, 2C Lane 9, D.H.A. Phase 7 Seher Commercial Area Phase 7 Defence Housing Authority, Karachi",4,1096,24.814239,67.0717313,ChIJL4vIZmA8sz4RsCIKN4LK_7Q,restaurant_images/ChIJL4vIZmA8sz4RsCIKN4LK_7Q.jpg
Butlers Chocolate Caf?,"6th Commercial Lane, Karachi",4.3,4791,24.8171581,67.0410315,ChIJA6wd5a09sz4RYiRtNsdUs-Y,restaurant_images/ChIJA6wd5a09sz4RYiRtNsdUs-Y.jpg
Espresso Shahbaz DHA,"Ground Floor, 7-C Khayaban-e-Shahbaz, Karachi",4.3,2331,24.808078,67.0614994,ChIJvx-9TPY8sz4RxNqkDHi94qs,restaurant_images/ChIJvx-9TPY8sz4RxNqkDHi94qs.jpg
Fusion Pizzeria,Pakistan,4.5,21,24.8138757,67.1037387,ChIJ7-amgSc7sz4Ruwfp_YjaO0s,restaurant_images/ChIJ7-amgSc7sz4Ruwfp_YjaO0s.jpg
Bismillah Sanzar Hotel,"R473+4XG, Unnamed Road, Block C Bhittai Colony Korangi Creek, Karachi",3.7,3,24.8128124,67.1049631,ChIJC9FMTgQ7sz4ReD1oP5kDCc0,restaurant_images/ChIJC9FMTgQ7sz4ReD1oP5kDCc0.jpg
Taste point momos and Chinese restaurant,"R473+HPW, Central Street, Altaf Town Korangi Creek, Karachi",4.5,48,24.8139901,67.1043793,ChIJQ8l9Ll47sz4RGp3Rz_m6Q8Q,restaurant_images/ChIJQ8l9Ll47sz4RGp3Rz_m6Q8Q.jpg
NABEEL BURGER RESTAURANT,"R473+HQX, Altaf Town Korangi Creek, Karachi",2.8,4,24.8138811,67.1046001,ChIJ7Q4yYeg7sz4RdCAcIpLkYiI,restaurant_images/ChIJ7Q4yYeg7sz4RdCAcIpLkYiI.jpg
Cafe Quetta Darbar Hotel,"R473+JVM, Block B Bhittai Colony Korangi Creek, Karachi",4,2,24.8141126,67.1046594,ChIJOfix22Y7sz4RQFQHptmUgCI,restaurant_images/ChIJOfix22Y7sz4RQFQHptmUgCI.jpg
The Chessy palazzo,"R464+XPC, Block C Bhittai Colony Korangi Creek, Karachi",5,4,24.8124389,67.106774,ChIJW538qZw7sz4Rr5dJgM63SI8,restaurant_images/ChIJW538qZw7sz4Rr5dJgM63SI8.jpg
French Fries Cabin,"Plot 45, Block E Bhittai Colony Korangi Creek, Karachi",3,1,24.8104588,67.1072347,ChIJ0zb3DQA7sz4Rs1KYY2mwaDI,restaurant_images/ChIJ0zb3DQA7sz4Rs1KYY2mwaDI.jpg
SHAHI GHAR KA KHANA,"House no 90, Korangi Crossing Road, Block B Bhittai Colony, Karachi",5,2,24.8151889,67.1055272,ChIJwWgtcAA7sz4R4TyX-Pq0eKA,restaurant_images/ChIJwWgtcAA7sz4R4TyX-Pq0eKA.jpg
Big Tasty Bite,"House num B35 Area, Korangi Crossing Road, Bhittai Colony, Karachi",,,24.8142248,67.1068495,ChIJRxLrSAA7sz4RAkO5RDzPVGM,restaurant_images/ChIJRxLrSAA7sz4RAkO5RDzPVGM.jpg
Noorani Kabab House,"Plot 283, Block B Bhittai Colony Korangi Creek, Karachi",4.4,14,24.8145619,67.106824,ChIJ2ehC3Co7sz4RALy-KR_i9yA,restaurant_images/ChIJ2ehC3Co7sz4RALy-KR_i9yA.jpg
Azlan Biryani Centre,"House B, 294 Korangi Crossing Road, Bhittai Colony",3.9,9,24.8151196,67.1068109,ChIJdQSc3X87sz4R8zUenTaQLe8,restaurant_images/ChIJdQSc3X87sz4R8zUenTaQLe8.jpg
Crazy Pizza,"Shop 1, H, 698, Block C Bhittai Colony Korangi Creek, Karachi",4.5,74,24.8130085,67.1081532,ChIJEWBw_7Y7sz4RXzyeEIsFebA,restaurant_images/ChIJEWBw_7Y7sz4RXzyeEIsFebA.jpg
Khaba point,"R475+575, Block C Bhittai Colony Korangi Creek, Karachi",,,24.8128922,67.1082305,ChIJP3IdTeo7sz4RtMCTmspMGT0,restaurant_images/ChIJP3IdTeo7sz4RtMCTmspMGT0.jpg
Akbar Khan Chicken Canter,"Plot 101 D, Karachi",5,3,24.8127874,67.1083676,ChIJV2P73Lk_sz4Rf0SiSu5Bu0g,restaurant_images/ChIJV2P73Lk_sz4Rf0SiSu5Bu0g.jpg
EAT OWN,"SHOP NO. 650, Block C, Karachi",4.1,9,24.8136837,67.108041,ChIJDdNfSPI7sz4RzRzldDumAMQ,restaurant_images/ChIJDdNfSPI7sz4RzRzldDumAMQ.jpg
Waheed Bhai Chicken,"R475+P66, Block C Bhittai Colony Korangi Creek, Karachi",5,2,24.8142884,67.1080072,ChIJaT1dVls7sz4R4UCmxs5Fyao,restaurant_images/ChIJaT1dVls7sz4R4UCmxs5Fyao.jpg
Subhan Allah Pakwan,"R475+3GJ, Block D Bhittai Colony Korangi Creek, Karachi",5,2,24.812712,67.1087583,ChIJ4eV1x4I7sz4RgtCIUnyP84Q,restaurant_images/ChIJ4eV1x4I7sz4RgtCIUnyP84Q.jpg
GB FLAME AND FLAVOR,"R484+GF6, Korangi Crossing Road, Block B Bhittai Colony Korangi Creek, Karachi",5,2,24.8163125,67.1061875,ChIJm1PDGco7sz4RshXcb5VHKic,restaurant_images/ChIJm1PDGco7sz4RshXcb5VHKic.jpg
Ali malang chicken depo,"R475+Q5Q, Korangi Crossing Road, Block C Bhittai Colony Korangi Creek, Karachi",5,2,24.8144502,67.1079839,ChIJd-jYTfE7sz4RKb9KbZ5Pc68,restaurant_images/ChIJd-jYTfE7sz4RKb9KbZ5Pc68.jpg
Golden Spoon Restaurant,"Plot 359, Block B Bhittai Colony Korangi Creek, Karachi",5,7,24.8148773,67.107746,ChIJe_VjZXc7sz4RNYMAaKqggtI,restaurant_images/ChIJe_VjZXc7sz4RNYMAaKqggtI.jpg
Back Street Pizza,"Plot 358, Block B Bhittai Colony Korangi Creek, Karachi",4.2,18,24.8149112,67.1077516,ChIJIy7wXvA7sz4RbWfrKEacn9Q,restaurant_images/ChIJIy7wXvA7sz4RbWfrKEacn9Q.jpg
Meer Jee Restaurant,"Plot 415, Block B Bhittai Colony Korangi Creek, Karachi",4.4,82,24.8160096,67.1068219,ChIJFVNsJQA7sz4R3o8DdEnJV2k,restaurant_images/ChIJFVNsJQA7sz4R3o8DdEnJV2k.jpg
Babu Pathan chapli kabab,"Plot 417, Block B Bhittai Colony Korangi Creek, Karachi",4.6,20,24.8161493,67.1066782,ChIJlQOPbpY7sz4RP7noUapLAn8,restaurant_images/ChIJlQOPbpY7sz4RP7noUapLAn8.jpg
Al-Madina Pakwaan center,"R475+7GM, Korangi Crossing Road, Block D Bhittai Colony Korangi Creek, Karachi",5,1,24.8132146,67.1088104,ChIJpVSElsk7sz4RbUTZ6FgwQ6Q,restaurant_images/ChIJpVSElsk7sz4RbUTZ6FgwQ6Q.jpg
Memon Sheermaal House,"R484+CP9, Block B Bhittai Colony Korangi Creek, Karachi",5,2,24.8160276,67.1068492,ChIJj_zDPwA7sz4RnN7t48FhuEw,restaurant_images/ChIJj_zDPwA7sz4RnN7t48FhuEw.jpg
Pizza Place,"Plot 354, Block B Bhittai Colony Korangi Creek, Karachi",4.8,5,24.8152634,67.1076643,ChIJHRegTwA7sz4RdGMB3klxN4s,restaurant_images/ChIJHRegTwA7sz4RdGMB3klxN4s.jpg
New Al Habib Restaurant,"Shop no 742, 743 Korangi Crossing Road, Bhittai Colony, Karachi",4,7,24.8151545,67.1078238,ChIJiapSoV87sz4RSmXMF-tcRxQ,restaurant_images/ChIJiapSoV87sz4RSmXMF-tcRxQ.jpg
Aurangzaib Chapli Kabab ????????? ????? ?????,"B, Korangi Crossing Road, Bhittai Colony, Karachi",,,24.8152351,67.1077919,ChIJS7K5l8U7sz4Roi6nzaNBhC4,restaurant_images/ChIJS7K5l8U7sz4Roi6nzaNBhC4.jpg
New Al Naz Biryani and Pakwan Center,"R485+62P, Block B Bhittai Colony Korangi Creek, Karachi",3.9,266,24.8155979,67.1075915,ChIJxZyTvXc7sz4R9m6i8VmaQ-0,restaurant_images/ChIJxZyTvXc7sz4R9m6i8VmaQ-0.jpg
Hot Chilli Chinese Restaurant,"near AL Naz Biryani, Block B Bhittai Colony Korangi Creek, Karachi",4.2,162,24.8155162,67.1077423,ChIJZy26s-A7sz4RWbkNiBmfBSA,restaurant_images/ChIJZy26s-A7sz4RWbkNiBmfBSA.jpg
Bar.B.Q Tonight - Lucky One Mall,"H.no /M2E, 578 Block D, Karachi",4.6,9,24.8114825,67.1095495,ChIJC7SwA1w7sz4RvFOGG8UgACk,restaurant_images/ChIJC7SwA1w7sz4RvFOGG8UgACk.jpg
Quetta Allah Wala Restaurant,"Plot 466 B, Korangi Creek, Karachi",3.9,8,24.8155969,67.1077124,ChIJCTM1j947sz4RdWQOCA4P4ko,restaurant_images/ChIJCTM1j947sz4RdWQOCA4P4ko.jpg
Azad Burger and Bar B Q,"Plot 384 B, Plot 384, Block B Bhittai Colony Korangi Creek, Karachi",3.9,801,24.815832,67.1075276,ChIJ98_bxyw7sz4RnVtTDHZ2Wy0,restaurant_images/ChIJ98_bxyw7sz4RnVtTDHZ2Wy0.jpg
SHAHI PIZZA ??,"Shop#13, near Alnaz Pakwan, Korangi Crossing Road, Block B Bhittai Colony, Karachi",4.5,21,24.8155656,67.1080565,ChIJHceRPwA7sz4R9t4nhUcPgTU,restaurant_images/ChIJHceRPwA7sz4R9t4nhUcPgTU.jpg
Marhaba Food & Juice Centre,"B707,708, Plot 720 Korangi Crossing Road, Bhittai Colony Block B Bhittai Colony Korangi Creek, Karachi",4.2,355,24.8164548,67.1074396,ChIJh7GU6Xc7sz4R8W8pMQF7O04,restaurant_images/ChIJh7GU6Xc7sz4R8W8pMQF7O04.jpg
Bawarche Khana,"Plot 459, Block B Bhittai Colony Korangi Creek, Karachi",5,1,24.8158376,67.1081149,ChIJxTVWzNs7sz4RAsMZrnBk1lA,restaurant_images/ChIJxTVWzNs7sz4RAsMZrnBk1lA.jpg
Mk homemade food,"Grey River Park, Altaf Town Korangi Creek, Karachi",3.5,4,24.8189375,67.1014831,ChIJFzrzDoc7sz4RSpA1gDFQjVI,restaurant_images/ChIJFzrzDoc7sz4RSpA1gDFQjVI.jpg
Haochi (Momos & Chinease),"Korangi Crossing Road, Block B Bhittai Colony, Karachi",4.7,3,24.8167671,67.1073388,ChIJzz7hJLs7sz4RbBc1F8zTznY,restaurant_images/ChIJzz7hJLs7sz4RbBc1F8zTznY.jpg
Kamran Sweets Bakers Snacks Dairy,"Plot 728 B, Karachi",,,24.8134177,67.1097616,ChIJ5Z-u5rQ7sz4Rhzfiu5CAE-M,restaurant_images/ChIJ5Z-u5rQ7sz4Rhzfiu5CAE-M.jpg
New Quetta Super Piyala Hotel,"R485+P43, Road, Block B Bhittai Colony Korangi Creek, Karachi",4,12,24.8167603,67.107788,ChIJ_XbF3Hc7sz4R5iqbA-Ve720,restaurant_images/ChIJ_XbF3Hc7sz4R5iqbA-Ve720.jpg
Different Burger,"R485+P44, Block B Bhittai Colony Korangi Creek, Karachi",5,1,24.816773,67.1078376,ChIJ1V_jRgA7sz4Rh2Rc_ArzACk,restaurant_images/ChIJ1V_jRgA7sz4Rh2Rc_ArzACk.jpg
Cafe Creek,"340 A, Plot 498, Block B Bhittai Colony Korangi Creek, Karachi",4.4,21,24.8184404,67.1054473,ChIJ5-wLdjY7sz4R_T4Jqhx3Aa4,restaurant_images/ChIJ5-wLdjY7sz4R_T4Jqhx3Aa4.jpg
Malik Nehari & Bar B.Q,"Shop no 17, 2 1/2 Karachi, Sector 33 A ??????, ?????",3.9,223,24.8247979,67.1458166,ChIJqV-xlVU6sz4RmezaKznzyJY,restaurant_images/ChIJqV-xlVU6sz4RmezaKznzyJY.jpg
Pizza Max - Korangi,"5 Main Korangi Industrial Road, Karachi",4.4,4002,24.8284406,67.1613641,ChIJe6DFG186sz4RGNo70Ybr98k,restaurant_images/ChIJe6DFG186sz4RGNo70Ybr98k.jpg
Tawakkal Burger and Ice cream,"6 Korangi, Sector 44 C Landhi Town, Karachi",4.2,58,24.8247933,67.1729482,ChIJuf5hc4k6sz4RY1G-6VJirqs,restaurant_images/ChIJuf5hc4k6sz4RY1G-6VJirqs.jpg
Raees Ahmed Arain Standard Biryani House,"92, House no 4, Area 5/D, Street no, 6 Landhi Road, Karachi",4.3,4811,24.8292634,67.1699585,ChIJtfLXvWE6sz4RK4CI8viLp1k,restaurant_images/ChIJtfLXvWE6sz4RK4CI8viLp1k.jpg
M.A Foods(Mashallah Roti House),"Karachi, L1059, sector 48/E ,Korangi# 2,1/2, Sector 48 E Korangi, Karachi",5,6,24.8097697,67.1484217,ChIJk89a7H07sz4Ro9CyagRhNgs,restaurant_images/ChIJk89a7H07sz4Ro9CyagRhNgs.jpg
Adeel wilson,"Plot L 119, Francis Town Sector 48 F Korangi, Karachi",2,1,24.8090141,67.1485984,ChIJEzjUFDw7sz4RlsZjkIfmWas,restaurant_images/ChIJEzjUFDw7sz4RlsZjkIfmWas.jpg
"Sadaqat Sheermal, Chapaati & Roti maker","R47W+6VC, Sector 48 C Korangi, Karachi",4.3,68,24.8130653,67.147144,ChIJT7Mvrvw6sz4RwXrfg7x0d0M,restaurant_images/ChIJT7Mvrvw6sz4RwXrfg7x0d0M.jpg
Rafique Ahmed Bar.B.Que,"2.2/5, Byco pump, 2.2/5 Sector 48 C Korangi, Karachi",,,24.8131924,67.1466822,ChIJlRVJgDc7sz4R-3FTO4XZ_g4,restaurant_images/ChIJlRVJgDc7sz4R-3FTO4XZ_g4.jpg
Adnan Bar.B.Q,"Plot 9 48/C, Karachi",4.4,10,24.8129146,67.1463404,ChIJceh9F9o7sz4RyOZbWK6DcgE,restaurant_images/ChIJceh9F9o7sz4RyOZbWK6DcgE.jpg
Al Noor fast food??,"R44W+XQ6, Mustafa Taj Colony Mustafa Taj Colony Sector 48 F1 Korangi, Karachi",5,2,24.8074156,67.1468884,ChIJuaF6GgA7sz4RRtqtnvRIxxc,restaurant_images/ChIJuaF6GgA7sz4RRtqtnvRIxxc.jpg
Khanjees Fast Food,"R583+3G, 50 A, Karachi",4.8,12,24.8158069,67.1539123,ChIJgR_rGAA7sz4R2mwrpE5OGKk,restaurant_images/ChIJgR_rGAA7sz4R2mwrpE5OGKk.jpg
New Quetta AL Madina Hotel,"R48X+P5P, Sector 48 C Korangi, Karachi",4.6,5,24.8168239,67.1479562,ChIJk-6wBQA7sz4Ry13hOLSL0gk,restaurant_images/ChIJk-6wBQA7sz4Ry13hOLSL0gk.jpg
Mr Khan Restaurant,"Shop no:R-03, Karachi",5,3,24.8169347,67.147874,ChIJE2-iEz87sz4Rw2EhTnm7vbY,restaurant_images/ChIJE2-iEz87sz4Rw2EhTnm7vbY.jpg
"Jeelani Foods, Kabab paratha & B.B.Q","R48W+H2W, Taj Colony Sector 48 B Korangi, Karachi",5,4,24.8164571,67.1450582,ChIJWVr4rZ47sz4RIQ_EvyZWWe0,restaurant_images/ChIJWVr4rZ47sz4RIQ_EvyZWWe0.jpg
Al Fatah Fast Food,"R48V+FJ3, Taj Colony Sector 48 B Korangi, Karachi",5,1,24.8161306,67.1440456,ChIJ5TwLAwA7sz4RpRVI5E54KqE,restaurant_images/ChIJ5TwLAwA7sz4RpRVI5E54KqE.jpg
Qadri Fast Food ????? ???? ???,"Korangi Dhai Riyaz Chowk L 48B, Karachi",3.9,7,24.8173612,67.1449122,ChIJIdyKMmM7sz4RYscOQpoD7W0,restaurant_images/ChIJIdyKMmM7sz4RYscOQpoD7W0.jpg
Aalu Miyan,"Plot N, 6, Taj Colony Sector 48 B Korangi, Karachi",4.3,3,24.8180881,67.1448668,ChIJOfxLVwA7sz4RmCODJ9hfYN8,restaurant_images/ChIJOfxLVwA7sz4RmCODJ9hfYN8.jpg
Pizza mine,"Shop no. L-407, near karachi bakery korangi #2-1/2, Karachi",4,2,24.8181795,67.144805,ChIJG5D2EPA7sz4RSRZiBqyU3Fo,restaurant_images/ChIJG5D2EPA7sz4RSRZiBqyU3Fo.jpg
Armaan bismilallah burger,"R5C2+4HG, Owais Qarni Town Sector 50 A Korangi, Karachi",5,7,24.8203086,67.151456,ChIJfYN_NTE7sz4Ra-KVUdkKO8I,restaurant_images/ChIJfYN_NTE7sz4Ra-KVUdkKO8I.jpg
FRYZILLA,"R595+932, Ghous Pak Road, Sector 50 A Korangi, Karachi",5,7,24.8183808,67.1576494,ChIJ4bmieAA7sz4R2ekOkCkAaKw,restaurant_images/ChIJ4bmieAA7sz4R2ekOkCkAaKw.jpg
New Al Habib Catering,"R49V+CV9, Taj Colony Sector 48 B Korangi, Karachi",4,3,24.8185163,67.1447381,ChIJZ8FLRfU7sz4RhP38aB14MY4,restaurant_images/ChIJZ8FLRfU7sz4RhP38aB14MY4.jpg
New Quaita Mubarak hotel,"50 Korangi Crossing Rd, Korangi Creek",4.5,2,24.8076218,67.1615146,ChIJv1EZp-I7sz4RWYdVW0sbiak,restaurant_images/ChIJv1EZp-I7sz4RWYdVW0sbiak.jpg
Mashah Allah resturent,"Sector 41 B Korangi 2?, Karachi",,,24.8196063,67.1458171,ChIJsSx4QB87sz4Rj1wXNfN-ctg,restaurant_images/ChIJsSx4QB87sz4Rj1wXNfN-ctg.jpg
Ali Khan Fast Food & BBQ,"R586+J5R, Ghous Pak Road, Sector 50 A Korangi, Karachi",5,1,24.8166264,67.1603952,ChIJMzIpHQA7sz4ReigUucFDXeY,restaurant_images/ChIJMzIpHQA7sz4ReigUucFDXeY.jpg
Al saeed pakwan Centre,"R546+VQF, Sector 50 C Korangi, Karachi",4.6,9,24.807185,67.16192,ChIJk-oNIX07sz4Rr9ZsWEOQu3s,restaurant_images/ChIJk-oNIX07sz4Rr9ZsWEOQu3s.jpg
Rehmat shree pasban chowk,"akhbar, Pasban chowk bus stop creek road karchi Ali, Shah, goth, Karachi",5,2,24.8069525,67.1619426,ChIJJf2Aodg7sz4RYneKIf896Vo,restaurant_images/ChIJJf2Aodg7sz4RYneKIf896Vo.jpg
Madni biryani & Fast Food,"infront of 17k bus stop, Ghous Pak Road, G Korangi, Karachi",5,1,24.8167898,67.1606145,ChIJr3-fpOo7sz4Rur980dsIs20,restaurant_images/ChIJr3-fpOo7sz4Rur980dsIs20.jpg
SHANDAR PAKWAN CENTER,"Ghous Pak Road, Sector 50 A Korangi, Karachi",5,2,24.8177405,67.1601796,ChIJjwHiOQA7sz4RHm3d-pOzpjA,restaurant_images/ChIJjwHiOQA7sz4RHm3d-pOzpjA.jpg
Rahmat special biryani,"Pasban Chowk Bus Stop, Sector 50 C Korangi, Karachi",,,24.8072931,67.1624817,ChIJlfUpNwA7sz4Rx_zC1cRtEow,restaurant_images/ChIJlfUpNwA7sz4Rx_zC1cRtEow.jpg
Noorani Kabab & Bar B.Q,"near Pappan Choak, Street no 7 Shop no 8, near Pappan Choak, 1-1/2 Sector 48 A 1 Korangi, Karachi",4.2,33,24.8149358,67.1396563,ChIJfR4CLfc7sz4RI6N4SaLWdNo,restaurant_images/ChIJfR4CLfc7sz4RI6N4SaLWdNo.jpg
N.K. Fast Food & BBQ ??? ?? ???? ??? ? ?? ?? ???,"Plot No. 2, Sector 41 A Korangi, Karachi",4.5,15,24.8191087,67.1428783,ChIJeWhQiLg7sz4RnEarNzNVn38,restaurant_images/ChIJeWhQiLg7sz4RnEarNzNVn38.jpg
New Quetta Al Meraj Hotel Jumma Khan,"R49R+HXW, Taj Colony Sector 48 B Korangi, Karachi",4,41,24.8189849,67.1424407,ChIJGeqPEP46sz4RWLO4otm8XXM,restaurant_images/ChIJGeqPEP46sz4RWLO4otm8XXM.jpg
Jiya's Foods,Karachi,3.8,24,24.8193125,67.1428125,ChIJiwTQras7sz4RFkCGNZuOEjE,restaurant_images/ChIJiwTQras7sz4RFkCGNZuOEjE.jpg
Alia chicken centre&bonliss,"fish, KO, rang I solaotar, markit, Karachi",1,1,24.8067276,67.1635427,ChIJfZM0DcY7sz4R84OLP3byuJ4,restaurant_images/ChIJfZM0DcY7sz4R84OLP3byuJ4.jpg
Al-Muhammadi Biriyani & Pakwan,"R48Q+GQW, Taj Colony Sector 48 B Korangi, Karachi",4.6,15,24.81636,67.1394467,ChIJG7xk-T07sz4RugfNSd5rIx8,restaurant_images/ChIJG7xk-T07sz4RugfNSd5rIx8.jpg
Shamshad Pakwan House,Karachi,3.6,8,24.8216875,67.1565625,ChIJS4M-Guc7sz4RgMu2ci43i7k,restaurant_images/ChIJS4M-Guc7sz4RgMu2ci43i7k.jpg
Al-Haris Biryani,"R557+4H7, Ibrahim Hyderi, Karachi",,,24.8077548,67.1640617,ChIJvX0zGMA7sz4R3oLNK2Dc-uU,restaurant_images/ChIJvX0zGMA7sz4R3oLNK2Dc-uU.jpg
Noman Chicken Center,"Plot#73, Survey #2, Ghazi Baba Colony, Sector 41 B Korangi, Karachi",5,1,24.8201633,67.1426597,ChIJA-msTVo7sz4Rl2aOF8OF23k,restaurant_images/ChIJA-msTVo7sz4Rl2aOF8OF23k.jpg
Zain night biryani,"R4CV+446, Sector 41 B Korangi, Karachi",3.9,14,24.8202864,67.1427697,ChIJeSDxGbQ7sz4R9PWq00Jn10U,restaurant_images/ChIJeSDxGbQ7sz4R9PWq00Jn10U.jpg
Quetta Al-Sadaat Bismillah Hotel,"R692+XJ7, Naval Land Landhi Town, Karachi",4,4,24.8199046,67.2015532,ChIJKRFInaAxsz4RSfuWc2T1-hA,restaurant_images/ChIJKRFInaAxsz4RSfuWc2T1-hA.jpg
Ali shah crab shop,"Ali Ghot bin Qasim town uc 30, Naval Land Landhi Town, Karachi",5,1,24.8199689,67.1988458,ChIJm2u-wisxsz4RQdAisNXWUq0,restaurant_images/ChIJm2u-wisxsz4RQdAisNXWUq0.jpg
Village View Restaurant,"R59W+PMG, Naval Land Landhi Town, Karachi",4.4,11,24.8193215,67.196716,ChIJIwUqxLsxsz4RhufB5tv93II,restaurant_images/ChIJIwUqxLsxsz4RhufB5tv93II.jpg
Lala chips wala,"R6C3+C7X, Goth Lalabad Landhi Town, Karachi",,,24.8211093,67.2032427,ChIJe-iKGMkxsz4RloUgG-V1s6E,restaurant_images/ChIJe-iKGMkxsz4RloUgG-V1s6E.jpg
Talha&rameen fast food,"33 Alyas goth, Karachi",4.5,2,24.8174158,67.1918219,ChIJkQTFoqAxsz4R8dCsnTs959M,restaurant_images/ChIJkQTFoqAxsz4R8dCsnTs959M.jpg
Nagori milk shake & bakers,"R59Q+5HV, Salahi Road, Naval Land Landhi Town, Karachi",4.7,3,24.8179803,67.1889361,ChIJxRa8Xuw7sz4R6xIhcnQVm2k,restaurant_images/ChIJxRa8Xuw7sz4R6xIhcnQVm2k.jpg
Al-Muqeem Biryani & Pakwan Center,"R59Q+MG7, Landhi Town, Karachi",5,2,24.8191659,67.1888349,ChIJjxTORgA7sz4R7fkc6NFY4oE,restaurant_images/ChIJjxTORgA7sz4R7fkc6NFY4oE.jpg
MashaAllah Sheermall House,"R59Q+PG5, Ilyas Goth Korangi Sector 51 C Landhi Town, Karachi",3.9,7,24.8192506,67.1888483,ChIJvT7QUp06sz4RBaAHKiPld4A,restaurant_images/ChIJvT7QUp06sz4RBaAHKiPld4A.jpg
Al Harmain Restaurant & B.B.Q,"R6G5+758 Lalaabad road near bakri petrol pum Bin qasim town, Landhi Town, Karachi",3.9,16,24.8257224,67.208009,ChIJbQoM6GIxsz4R8CbpaCHpyzg,restaurant_images/ChIJbQoM6GIxsz4R8CbpaCHpyzg.jpg
Qalandri Naan and Chapati House,"Danish, Shah Road, Naval Land Landhi Town, Karachi",5,5,24.8185757,67.1830483,ChIJgZpegh47sz4RMzIJ6HPeJ2c,restaurant_images/ChIJgZpegh47sz4RMzIJ6HPeJ2c.jpg
Sharoz Chicken Center ????? ???? ????,"Danish, Shah Road, Naval Land Landhi Town, Karachi",4,3,24.818574,67.182974,ChIJA0GEBzo7sz4RbEPiWSoXTWk,restaurant_images/ChIJA0GEBzo7sz4RbEPiWSoXTWk.jpg
Geo Burger Point,"Sector 51-C Hasrat Mohani Colony Sector 51 C Korangi, Karachi",4.6,7,24.8208508,67.1804703,ChIJDSZ7Feg7sz4R-d8FqaVHZA8,restaurant_images/ChIJDSZ7Feg7sz4R-d8FqaVHZA8.jpg
Wahaj restaurant,"R5FJ+283, 51C Hasrat Mohani Colony Sector 51 C Korangi, Karachi",1,1,24.8225091,67.1808081,ChIJ5YnYGQA7sz4RX7KNe41gcqw,restaurant_images/ChIJ5YnYGQA7sz4RX7KNe41gcqw.jpg
Irtiza fast food,"R5CJ+P43, 51C Hasrat Mohani Colony Sector 51 C Korangi, Karachi",5,3,24.8217553,67.1802951,ChIJ8aJfVAA7sz4RLANI-9veFiM,restaurant_images/ChIJ8aJfVAA7sz4RLANI-9veFiM.jpg
Jhulay Lal Biryani 51 c,"R5FJ+42M, 51C Hasrat Mohani Colony Sector 51 C Korangi, Karachi",5,2,24.8228253,67.1800308,ChIJrVYnGQA7sz4RZ5fg3cdSqjo,restaurant_images/ChIJrVYnGQA7sz4RZ5fg3cdSqjo.jpg
Quetta attock hotel,"MUSLIMABAD COLONY LANDHI, 1b, NO22, Karachi",4,143,24.8264626,67.2193137,ChIJRytqOakxsz4R5Jdm_MuGpCo,restaurant_images/ChIJRytqOakxsz4R5Jdm_MuGpCo.jpg
Flavour French Fries,"Plot N 571, Sector 51-C Hasrat Mohani Colony Sector 51 C Korangi, Karachi",5,1,24.8238599,67.180109,ChIJzRJweL87sz4Rx9ozejhdpug,restaurant_images/ChIJzRJweL87sz4Rx9ozejhdpug.jpg
Karachi Electronic12,"R6M5+HM2, Sherpao Colony Landhi Town, Karachi",4,1,24.8338763,67.2091399,ChIJDzKfXQAxsz4RK1EzGThlgnQ,restaurant_images/ChIJDzKfXQAxsz4RK1EzGThlgnQ.jpg
New Allah Razi,"R5GH+3Q5, 51C Hasrat Mohani Colony Sector 51 C Korangi, Karachi",3,1,24.8250898,67.1795893,ChIJC7_STgA7sz4RYH7cIpRXz1s,restaurant_images/ChIJC7_STgA7sz4RYH7cIpRXz1s.jpg
Super Swat Naan Shop,"R6GC+RCG, Muslimabad Colony Landhi Town, Karachi",4,3,24.8270628,67.2210851,ChIJ-Qvwy4Exsz4R6ML8Rj81pUU,restaurant_images/ChIJ-Qvwy4Exsz4R6ML8Rj81pUU.jpg
Noorani Biryani,"R5GH+3Q5, 51C Hasrat Mohani Colony Sector 51 C Korangi, Karachi",4.2,46,24.8251488,67.1794955,ChIJ2yc1K247sz4RN-QFoM8am1E,restaurant_images/ChIJ2yc1K247sz4RN-QFoM8am1E.jpg
Brother's Fast Food,"R6P4+26H, Lalabad Road, Sherpao Colony Landhi Town, Karachi",4.3,3,24.8350621,67.2056123,ChIJs-nnPRMxsz4RYbM2GZ1twIo,restaurant_images/ChIJs-nnPRMxsz4RYbM2GZ1twIo.jpg
Alkaram Pakwan Center,"R5GH+7JC, Hasrat Mohani Colony Sector 51 B Korangi, Karachi",4,198,24.8256966,67.1790144,ChIJQcv6SYY6sz4RTNDTB5in--g,restaurant_images/ChIJQcv6SYY6sz4RTNDTB5in--g.jpg
Baloch Vegetable,"R6M7+6HF, Street 3B, Sherpao Colony Labor Colony (Landhi) Muslimabad Colony Landhi Town, Karachi",,,24.8330589,67.2139258,ChIJKW9aCgAxsz4RD2Goz8CAvY0,restaurant_images/ChIJKW9aCgAxsz4RD2Goz8CAvY0.jpg
Nessnall otal,"R6M6+QRX, Sherpao Road, Sherpao Colony Labor Colony (Landhi) Landhi Town, Karachi",5,1,24.834483,67.2120943,ChIJGcZt6Iwxsz4RHwom6hg1A1g,restaurant_images/ChIJGcZt6Iwxsz4RHwom6hg1A1g.jpg
Dawood Khan Shakir Pakwan center and B.B.Q.,"Readhe Road, Karachi",,,24.8226245,67.2264827,ChIJvTvT4Ucxsz4Rapehfr-jI_8,restaurant_images/ChIJvTvT4Ucxsz4Rapehfr-jI_8.jpg
Sarwer Chicken Center,"R6M8+F64, Sherpao Colony Labor Colony (Landhi) Muslimabad Colony Landhi Town, Karachi",5,1,24.8330128,67.2156685,ChIJfflkf7Yxsz4Ru_tPquq89R0,restaurant_images/ChIJfflkf7Yxsz4Ru_tPquq89R0.jpg
LPC - Long Potato Chips Corner,"R6P5+953, Unnamed Road, Sherpao Colony Labor Colony (Landhi) Landhi Town, Karachi",2.7,6,24.8358814,67.2079179,ChIJ0dDUdMcxsz4RugnkVMYIwBE,restaurant_images/ChIJ0dDUdMcxsz4RugnkVMYIwBE.jpg
Easy Foods B.BQ,"R5GH+944, 44C Sector 44 C Landhi Town, Karachi",5,3,24.825884,67.1778388,ChIJFwMVKR47sz4RTVdHfN3syqE,restaurant_images/ChIJFwMVKR47sz4RTVdHfN3syqE.jpg
Sultan pakwan house,"R6M8+797, Muslimabad Colony Landhi Town, Karachi",4.7,3,24.8331683,67.2159195,ChIJBSB70Ysxsz4ROP3DxLuNDBw,restaurant_images/ChIJBSB70Ysxsz4ROP3DxLuNDBw.jpg
Geo Burger,"R6M6+WXP, Sherpao Road, Sherpao Colony Labor Colony (Landhi) Landhi Town, Karachi",4.4,15,24.834849,67.212441,ChIJw-Kt3m4xsz4RHQMFRDMBd00,restaurant_images/ChIJw-Kt3m4xsz4RHQMFRDMBd00.jpg
Bismillah Biryani,"R6CH+H2M, Bakhtawar Goth Landhi Town, Karachi",,,24.8213625,67.2278906,ChIJo0U-cQAxsz4Rxh8gUg0fCoU,restaurant_images/ChIJo0U-cQAxsz4Rxh8gUg0fCoU.jpg
Al Makkah Special Shawarma,"Sherpao Colony Landhi Town, Karachi",5,1,24.8352851,67.2123365,ChIJefMEJgAxsz4Rn3ZTdelMn-8,restaurant_images/ChIJefMEJgAxsz4Rn3ZTdelMn-8.jpg
Ozain finger chips and samosa corner,"R6P4+PPV, Sherpao Colony Labor Colony (Landhi) Landhi Town, Karachi",5,2,24.8368676,67.2067937,ChIJK71jJAAxsz4RCZe8vMCdqeQ,restaurant_images/ChIJK71jJAAxsz4RCZe8vMCdqeQ.jpg
Rehri Goth jetty,"R68Q+396, Rehri Goth Ibrahim Hyderi, Karachi",3.7,35,24.8151692,67.2384053,ChIJHUAnxswxsz4RZ79HDLOZoog,restaurant_images/ChIJHUAnxswxsz4RZ79HDLOZoog.jpg
Ali Fries & Food Point,Karachi,,,24.8242425,67.2537895,ChIJEUWUVgAxsz4R99j4vnNSpgQ,restaurant_images/ChIJEUWUVgAxsz4R99j4vnNSpgQ.jpg
Bismillah restaurant,"R7G3+5C6, Qasim Town, Karachi",4.4,10,24.8254204,67.2535123,ChIJoTER4uIxsz4R1X2lii__fI0,restaurant_images/ChIJoTER4uIxsz4R1X2lii__fI0.jpg
Masha Allah Memon Tea Point,"R67J+PFW, Rehri Goth Landhi Town, Karachi",3.2,5,24.8143514,67.2311934,ChIJR5pFm1Exsz4RI7NpTSXalMs,restaurant_images/ChIJR5pFm1Exsz4RI7NpTSXalMs.jpg
Jameel Hotel and Restaurant,"5, Bhains Colony (Cattle Colony) Bin Qasim Town, Karachi",3.1,8,24.832305,67.2571867,ChIJG76SDwAxsz4RNDBYk7qIZQc,restaurant_images/ChIJG76SDwAxsz4RNDBYk7qIZQc.jpg
New pizza fast food & BBQ,"near main gate, Labour Square Landhi Town, Karachi",,,24.8324092,67.2445654,ChIJI65xGgAxsz4RlH8C0gujSGo,restaurant_images/ChIJI65xGgAxsz4RlH8C0gujSGo.jpg
Sooper Foods,"Road Number 6, Bhains Colony (Cattle Colony) Bin Qasim Town, Karachi",4.4,56,24.832331,67.2598423,ChIJP_lYnK0xsz4RNjqr4FrWNvc,restaurant_images/ChIJP_lYnK0xsz4RNjqr4FrWNvc.jpg
ALI AHMED ABBASI,"Labour square 52A stop New 600 Falts, Landhi Town, Karachi",,,24.8329859,67.2442825,ChIJKfvP1V0xsz4RGyVklpWvLE4,restaurant_images/ChIJKfvP1V0xsz4RGyVklpWvLE4.jpg
Talha Fast Food,"R7M5+R5M, Bhains Colony (Cattle Colony) Bin Qasim Town, Karachi",,,24.8345782,67.2579232,ChIJU0sRZgAxsz4RdLXeXrk6-ng,restaurant_images/ChIJU0sRZgAxsz4RdLXeXrk6-ng.jpg
New Zaiqa Bar B Q Restaurant,"R6PV+4V8, Labour Square Labor Colony Landhi Town, Karachi",,,24.8353022,67.2446085,ChIJ2Y9y9a4xsz4R4GOiv7luNB0,restaurant_images/ChIJ2Y9y9a4xsz4R4GOiv7luNB0.jpg
Gondal Bar Restaurent,"mehran highway Road No # 03 Bhains, colony, Karachi",5,3,24.8362623,67.2554282,ChIJAxtGXPUxsz4RpiZ_ALUGfBM,restaurant_images/ChIJAxtGXPUxsz4RpiZ_ALUGfBM.jpg
Azad Hotel,"Unnamed Road, Karachi",4.2,132,24.8342303,67.2392967,ChIJBVZ6basxsz4RiHyJ246mGE0,restaurant_images/ChIJBVZ6basxsz4RiHyJ246mGE0.jpg
Al Falah Restaurant,"No. 4, Road, Bhains Colony (Cattle Colony) Bin Qasim Town, Karachi",4.7,27,24.836387,67.2565849,ChIJCXJ1aKExsz4RZ-n2RNrFXmg,restaurant_images/ChIJCXJ1aKExsz4RZ-n2RNrFXmg.jpg
New Noorani Restaurants,"R6MQ+PC5, Landhi Industrial Area, Karachi",4,203,24.8342592,67.2386067,ChIJH4AGSNUxsz4RblArthXK2Cg,restaurant_images/ChIJH4AGSNUxsz4RblArthXK2Cg.jpg
Khan Kababjees Restaurant ??? ???? ??? ????????,"Bhains Colony Road No 3, Mehran Highway, Bhains Colony (Cattle Colony) Landhi Karachi, Karachi",4.1,159,24.836687,67.2564239,ChIJCWY3x7kxsz4RuJG0r_K0NEs,restaurant_images/ChIJCWY3x7kxsz4RuJG0r_K0NEs.jpg
Nana Sindhi Qalndari Hotal,"R6PW+J2V, Labour Square Landhi Town, Karachi",4.5,4,24.8366245,67.2450346,ChIJiRfM9fIxsz4RtxkL_3iwUGc,restaurant_images/ChIJiRfM9fIxsz4RtxkL_3iwUGc.jpg
Dua Fast Food,"Road Number 6, Bhains Colony (Cattle Colony) Bin Qasim Town, Karachi",4.3,27,24.8362418,67.2596564,ChIJn6l843oxsz4RlszmGbnqesg,restaurant_images/ChIJn6l843oxsz4RlszmGbnqesg.jpg
Ahbab Coastle Seafood cattle collony,"St No 07, Karachi",4.8,5,24.8360516,67.2607953,ChIJdyL3wUgxsz4RHyoErrTnoWg,restaurant_images/ChIJdyL3wUgxsz4RHyoErrTnoWg.jpg
Awami hotel,"R7P4+RJR, Bhains Colony (Cattle Colony) Bin Qasim Town, Karachi",,,24.8371168,67.2565112,ChIJEz0gMAAxsz4RRyN1JuBMtMw,restaurant_images/ChIJEz0gMAAxsz4RRyN1JuBMtMw.jpg
Cafe Zaffran,"near faiz mart, Road No. 5, Karachi",,,24.8369254,67.2576562,ChIJ90-ROkUxsz4RDA9WmGOoD-g,restaurant_images/ChIJ90-ROkUxsz4RDA9WmGOoD-g.jpg
?????????? ??? ??????,"near shahi masjid, ?????",5,1,24.8302692,67.2307884,ChIJwQ8BUIQxsz4RduFU6To1kUQ,restaurant_images/ChIJwQ8BUIQxsz4RduFU6To1kUQ.jpg
Jimmy Pizza & Fast Food,"R6PR+PW6, Mehran Highway, Labour Square Labor Colony Landhi Town, Karachi",3.1,27,24.8364391,67.2423356,ChIJ2yjLTQAxsz4RpqmWHxZVnGY,restaurant_images/ChIJ2yjLTQAxsz4RpqmWHxZVnGY.jpg
Badshah Food Center,"R7P6+F74, Commercial Area Bhains Colony (Cattle Colony) Bin Qasim Town, Karachi",4.5,6,24.836223,67.260826,ChIJbX2XTvMxsz4RoIz7hB5hhE8,restaurant_images/ChIJbX2XTvMxsz4RoIz7hB5hhE8.jpg
Canteen,"VQ49+4G, Keamari, Karachi",5,3,24.854835,66.76895,ChIJ0_xtPQANsz4RJKFAlFFAHaY,restaurant_images/ChIJ0_xtPQANsz4RJKFAlFFAHaY.jpg
Rehman Hotel ????? ????,"Rehman Hotel, Mauripur Road, Keamari, Karachi",4.2,34,24.8498818,66.8232451,ChIJlXZQX88Tsz4Rd78Ed6m4sxk,restaurant_images/ChIJlXZQX88Tsz4Rd78Ed6m4sxk.jpg
Beach view resturant,"main hawaksbay point, Abdul rahman goth, Abdul Rehman Goth Keamari, Karachi",3,2,24.8507056,66.8252741,ChIJ5YND9AcTsz4RCU5txMo1z4s,restaurant_images/ChIJ5YND9AcTsz4RCU5txMo1z4s.jpg
"Dua Restaurant, Hawksbay Beach - ???? ???????? ???? ?? ????","Mauripur Road, Karachi",4.1,2111,24.86237,66.8489654,ChIJw-UOylATsz4RzHVwZCyprzE,restaurant_images/ChIJw-UOylATsz4RzHVwZCyprzE.jpg
Mashallah Awan Hotel,"VR7X+7G3, Mauripur Road, Sector 14 Hawkes Bay Town, Karachi",4.6,5,24.8631326,66.8487902,ChIJ-4DUrMoTsz4RkXCg3ctHgcY,restaurant_images/ChIJ-4DUrMoTsz4RkXCg3ctHgcY.jpg
Al Qadari Hotel,"VR6V+WFH, Road, Sector 14 Hawkes Bay Town, Karachi",4.6,5,24.8623104,66.8437308,ChIJSaB9P1MTsz4RvTzDgGJ8jAU,restaurant_images/ChIJSaB9P1MTsz4RvTzDgGJ8jAU.jpg
Nasir Brohi Hotel,"VR6Q+QQ5, Mauripur Road, Sector 14 Hawkes Bay Town, Karachi",3.8,426,24.861889,66.8394818,ChIJax9S6VgSsz4RngBrbUDMJSE,restaurant_images/ChIJax9S6VgSsz4RngBrbUDMJSE.jpg
????? ??? ???????? Jamali Beach Restaurant,"Main hawksbay, Jamali Goth, Karachi",4,37,24.8619147,66.8383889,ChIJxdhG-KETsz4Ri-lol4LxQuQ,restaurant_images/ChIJxdhG-KETsz4Ri-lol4LxQuQ.jpg
QUETTA HBR B.B.Q,"VR6Q+H82, Keamari, Karachi",5,2,24.8613592,66.8382857,ChIJU9o7RwATsz4RnDnPP3zO0x4,restaurant_images/ChIJU9o7RwATsz4RnDnPP3zO0x4.jpg
Quetta Old Partner,"VR6Q+P5H, Mauripur Road, Jamali Goth Keamari, Karachi",5,3,24.8618973,66.838004,ChIJWYwFi2ATsz4RiA06YAGm9Wc,restaurant_images/ChIJWYwFi2ATsz4RiA06YAGm9Wc.jpg
Hamza Restaurant,"VW36+FMV, Mauripur Keamari, Karachi",3.6,12,24.8537256,66.9116833,ChIJlUOUvcsVsz4RhsROzAtykts,restaurant_images/ChIJlUOUvcsVsz4RhsROzAtykts.jpg
Quetta Darbar Hotel,"VW37+WC9, Sandspit Road Younusbad, Kukur Village Mauripur, Karachi",4.1,94,24.8547755,66.913611,ChIJjbCuQrIVsz4RwZsNfPcr7YQ,restaurant_images/ChIJjbCuQrIVsz4RwZsNfPcr7YQ.jpg
Al makha restaurant,"VWF5+34M, Mauripur Road, Mauripur Keamari, Karachi",3,2,24.8727172,66.9078011,ChIJR5a7SnsVsz4RiEigbhTyEds,restaurant_images/ChIJR5a7SnsVsz4RiEigbhTyEds.jpg
Smoke & Grill by cafe ansii,"VWC6+W29, Mauripur Javed Behria Co-Operative Housing Society Keamari, Karachi",5,1,24.8722872,66.9101195,ChIJowUxOwAVsz4RlPLls-HcrUk,restaurant_images/ChIJowUxOwAVsz4RlPLls-HcrUk.jpg
Koyla Cafe,"VWC6+Q7G, Javed Behria Co-Operative Housing Society Keamari, Karachi",4.3,15,24.8719455,66.9106968,ChIJGVQEOQAVsz4R1GpHeT_wbgE,restaurant_images/ChIJGVQEOQAVsz4R1GpHeT_wbgE.jpg
Chapar hotel,"Javed Behria, VWC7+69M, Mauripur, Co-Operative Housing Society Keamari, Karachi",4.7,3,24.8697595,66.9132617,ChIJw3_ZT9UVsz4RJfpPKeeetIE,restaurant_images/ChIJw3_ZT9UVsz4RJfpPKeeetIE.jpg
Malak Sahab Pizza,"C65 commercial street, road, Mauripur Javed Behria Co-Operative Housing Society Hawkes Bay Town, Karachi",,,24.8716928,66.9116543,ChIJ5dwb_OAVsz4Rxxmx-BMQnXw,restaurant_images/ChIJ5dwb_OAVsz4Rxxmx-BMQnXw.jpg
New Quetta Suleman Hotel,"VWC6+FWC, Javed Behria Co-Operative Housing Society Keamari, Karachi",3.9,135,24.8711937,66.9122663,ChIJdeqEYHwUsz4RpmHlwiaUQFY,restaurant_images/ChIJdeqEYHwUsz4RpmHlwiaUQFY.jpg
Shafay sea food,"Kakapir Road, Karachi",4.3,4,24.8458332,66.9013315,ChIJvSlzcGsTsz4RBjOx0OEJzSw,restaurant_images/ChIJvSlzcGsTsz4RBjOx0OEJzSw.jpg
Cafe allah muhammad quetta hotel,"RWW2+8G2, Kakapir Keamari, Karachi",5,2,24.8457505,66.9012502,ChIJp7XclgoTsz4RFlMmkBAYH20,restaurant_images/ChIJp7XclgoTsz4RFlMmkBAYH20.jpg
Sandpit Dhaba,"RWW2+6C4, Kakapir Keamari, Karachi",4.4,7,24.8455152,66.9010833,ChIJVT1tEbUTsz4Rs8t_GDvbAaE,restaurant_images/ChIJVT1tEbUTsz4Rs8t_GDvbAaE.jpg
Sahil shinwari restaurant,"RWW2+6QV, Keamari, Karachi",3.8,6,24.8456496,66.9044249,ChIJRU4Wn-gTsz4RbWdniJH9Hak,restaurant_images/ChIJRU4Wn-gTsz4RbWdniJH9Hak.jpg
Madeena Chicken Palace and egg center,"Younasabad, sandsupit, Manora Drive, Kakapir",5,2,24.8438725,66.9041226,ChIJX6Si7o8Vsz4RkZneruK0uMU,restaurant_images/ChIJX6Si7o8Vsz4RkZneruK0uMU.jpg
Online Pizza,"Truck stand, Mauripur, Karachi",2,2,24.8683971,66.91826,ChIJ37D_1PAVsz4RoLx83vkg1dg,restaurant_images/ChIJ37D_1PAVsz4RoLx83vkg1dg.jpg
????????? ????? ????,"VW99+982, Mauripur Keamari, Karachi",5,1,24.8683971,66.91826,ChIJn242YpAVsz4RMqMSR7ojzYg,restaurant_images/ChIJn242YpAVsz4RMqMSR7ojzYg.jpg
TIKTOK PIZZA FASTFOOD BAR BE QUE ROLL POINT,"PLOT NO 4 A, AYU. SHOOPING CENTER, 13 KPT, SHOP NO, opposite ZIDAUIEN HOSPITAL, Keamari, Karachi",3,5,24.8751279,66.9125361,ChIJ4a52PAAVsz4R1rkU8MPyX0E,restaurant_images/ChIJ4a52PAAVsz4R1rkU8MPyX0E.jpg
Sheraz BBQ Restaurant - ????? ????? ??? ????????,"Sheraz Restaurant, Javed Bahria, 04, Commercial Street, Mauripur Javed Behria Co-Operative Housing Society Keamari, Karachi",4.2,101,24.8747377,66.91353,ChIJXYSpgUIVsz4RSl-WXfdRqa8,restaurant_images/ChIJXYSpgUIVsz4RSl-WXfdRqa8.jpg
Meer Hamdan hotal,Karachi,,,24.8689375,66.9189375,ChIJAZMuxeAVsz4RQEmHddFCIyc,restaurant_images/ChIJAZMuxeAVsz4RQEmHddFCIyc.jpg
Janger hotel bar b q and fast-food,"VW9C+R52, Hawks Bay Road, Mauripur Kemari Town, Karachi",5,2,24.8695055,66.920378,ChIJa3qvxnwVsz4RTpDdfHdthnE,restaurant_images/ChIJa3qvxnwVsz4RTpDdfHdthnE.jpg
?????? ??????,"VW9C+R5R, ???, Mauripur Keamari, Karachi",4.8,4,24.8696031,66.9203985,ChIJe3TIUNEVsz4RfSOZ-NV1SoY,restaurant_images/ChIJe3TIUNEVsz4RfSOZ-NV1SoY.jpg
Bismillah Chicken Shop,"VWF8+VQH, Mauripur Naval Colony Mauripur Keamari, Karachi",5,1,24.874473,66.9167426,ChIJQ1xklAYVsz4RT2C0OjsJJmM,restaurant_images/ChIJQ1xklAYVsz4RT2C0OjsJJmM.jpg
Al NAZ BIRYANI AND PAKWAN CENTRE MAURIPUR BRANCH,"Buss Stop, near Nihari inn restaurant, Main Hawks Bay Road, Karachi",4.9,30,24.8701671,66.9213138,ChIJZ_YxHRUVsz4RHyVEvLVn_P0,restaurant_images/ChIJZ_YxHRUVsz4RHyVEvLVn_P0.jpg
New Quetta Bolan Hotel,"Kemari Town, Hawksbay Road, Mauripur, Karachi",4.1,291,24.8699169,66.9216951,ChIJ2RtQn2YUsz4RQvAwq6RKiSc,restaurant_images/ChIJ2RtQn2YUsz4RQvAwq6RKiSc.jpg
Malik Taj Restaurant (MTR),"Hawks Bay Rd, Mauripur, Kemari Town, Karachi, Sindh, Keamari",3.8,83,24.8701792,66.9216022,ChIJ-VwQoWYUsz4Rpax1QLngPy8,restaurant_images/ChIJ-VwQoWYUsz4Rpax1QLngPy8.jpg
Mr Taj BBQ Fast food Roll,"Bus Stop, opposite Quetta Bolan Hotal, Mauripur Keamari, Karachi",5,2,24.8701567,66.9216701,ChIJJ_xQAz0Vsz4RhG7h8ctJtv4,restaurant_images/ChIJJ_xQAz0Vsz4RhG7h8ctJtv4.jpg
Sawabi chapli kabab,"VWCC+3RQ, Mauripur Keamari, Karachi",5,1,24.8702085,66.9220939,ChIJmyJEQAAVsz4Rpx8OGh4-Ijc,restaurant_images/ChIJmyJEQAAVsz4Rpx8OGh4-Ijc.jpg
Zam zam biryani 2nd branch Maripur hawksbay road old police station,"town, Maripur road, Kemari, Hawkes Bay Town, Karachi",5,1,24.8784533,66.8838845,ChIJ9Slm9XkTsz4RfxuSpHF4_dY,restaurant_images/ChIJ9Slm9XkTsz4RfxuSpHF4_dY.jpg
Quetta Manaan Hotel,"VW9G+WMX, Hawks Bay Road, Mauripur, Karachi",1,1,24.8698538,66.9267478,ChIJOU0ndQAVsz4RnOvcquiZmWk,restaurant_images/ChIJOU0ndQAVsz4RnOvcquiZmWk.jpg
Seafarer's Mess Pakistan Marine Academy Karachi,"VW5J+F64, Keamari, Karachi",4.5,80,24.858627,66.930585,ChIJmW-L_kAUsz4RmKLT-N13AgU,restaurant_images/ChIJmW-L_kAUsz4RmKLT-N13AgU.jpg
Cafe marhaba hotel gate no 6,"VX92+GR6, Mauripur Mauripur, Karachi",5,3,24.8687781,66.9520219,ChIJK9argoQVsz4R1c3ccit-PwU,restaurant_images/ChIJK9argoQVsz4R1c3ccit-PwU.jpg
Mallah Youth Trainer,"VX93+7WG, Hawksbay Road, Mauripur Mauripur, Karachi",4.3,8,24.868184,66.9548316,ChIJaQJnChwVsz4RG2Eu658SNDQ,restaurant_images/ChIJaQJnChwVsz4RG2Eu658SNDQ.jpg
Al Habib Hotel,"VX94+55H, 193/194 Street Number 4, Mauripur Mauripur, Karachi",,,24.8680241,66.9553842,ChIJU81VDAAVsz4RU1OlCzarAAw,restaurant_images/ChIJU81VDAAVsz4RU1OlCzarAAw.jpg
Islamia kakar hotel,"VX92+JG5, Mauripur Road, Mauripur, Karachi",5,2,24.8690224,66.9513461,ChIJ2cNh77MVsz4Rzxgw9gfamiE,restaurant_images/ChIJ2cNh77MVsz4Rzxgw9gfamiE.jpg
Taj Bajor Hotel,"VX94+R35, Mauripur Rd Quaid-e-Azam Truck Stand, Sindh Industrial Trading Estate, Karachi",4.3,216,24.8695099,66.9552325,ChIJt7bjQ7IVsz4RaKi0jWnfUYs,restaurant_images/ChIJt7bjQ7IVsz4RaKi0jWnfUYs.jpg
Al-Madina Hotel,"VX94+VCJ, Mauripur Rd, Quaid-e-Azam Truck Stand, SITE, Karachi, Sindh, Mauripur",4,90,24.8697209,66.9560132,ChIJI8IlPLIVsz4R3iTM88uJhHw,restaurant_images/ChIJI8IlPLIVsz4R3iTM88uJhHw.jpg
Sindh Punjab Hotel,"VX95+J5X, Mauripur, Karachi",3.7,49,24.8691003,66.957992,ChIJEfKQnLEVsz4RwnYmTGVNMno,restaurant_images/ChIJEfKQnLEVsz4RwnYmTGVNMno.jpg
Zamzam Biryani,"Gool Market, Gate # 03 Hawksbay Road, Quaid-e-Azam Truck Stand Mauripur, Karachi",4.3,24,24.8687353,66.9587074,ChIJe0f3hccVsz4RnpwyOrsmqGw,restaurant_images/ChIJe0f3hccVsz4RnpwyOrsmqGw.jpg
Almakha biryani,"Mauripur Road, Mauripur, Karachi",5,1,24.8673683,66.9417115,ChIJz9pUSD0Vsz4R-vvvqLbUk8k,restaurant_images/ChIJz9pUSD0Vsz4R-vvvqLbUk8k.jpg
khawaja Ismail Restuarant,"room# 7, Truck Stand, plot # 643 Hawksbay Road, Mauripur, Karachi",4,2,24.8695076,66.9581356,ChIJeTnDMpoVsz4RcChx63ROi-4,restaurant_images/ChIJeTnDMpoVsz4RcChx63ROi-4.jpg
new quitta pakistan hotel ???????? ??????? ????,Karachi,4.8,4,24.8670625,66.9411875,ChIJDSizbvgVsz4R4u-CtpvcpMk,restaurant_images/ChIJDSizbvgVsz4R4u-CtpvcpMk.jpg
New Frontier Hotel - ??? ??????? ????,"VX95+HVX, Mauripur, Karachi",1,1,24.8690687,66.9597484,ChIJ8yUnuiUVsz4RPlWo8xlmeyw,restaurant_images/ChIJ8yUnuiUVsz4RPlWo8xlmeyw.jpg
SNCOs Mess Masroor,"VW9Q+69V, Mauripur, Karachi",4,9,24.8686769,66.9392906,ChIJESqkyGgVsz4RhbYrFcSLi2A,restaurant_images/ChIJESqkyGgVsz4RhbYrFcSLi2A.jpg
Bilal Bajaur Hotel,"Truk stand, Gate, 2 Hawksbay Road, Maripur, Karachi",4,2,24.8708606,66.9620726,ChIJm4LVSgAVsz4R9FcTx__3BmU,restaurant_images/ChIJm4LVSgAVsz4R9FcTx__3BmU.jpg
????Dubai Resturent,"VXC7+252, Hawksbay Road, Mauripur Mauripur, Karachi",5,1,24.8700699,66.9628984,ChIJE84PcwoVsz4Rswd1Zk6ALY0,restaurant_images/ChIJE84PcwoVsz4Rswd1Zk6ALY0.jpg
Officer's Mess Masroor,"VWFV+VJ2, Mauripur, Karachi",3.4,18,24.8746272,66.944016,ChIJ23rOJgAVsz4RpDrJFQBou7c,restaurant_images/ChIJ23rOJgAVsz4RpDrJFQBou7c.jpg
Cafe Al Mahad,"S-52/B SITE, Hawksbay Road, Mauripur, Karachi",5,2,24.8728226,66.9615717,ChIJXT_nJ8sVsz4RkX65F-BXtF4,restaurant_images/ChIJXT_nJ8sVsz4RkX65F-BXtF4.jpg
Caf? Escape (????? ?????),"VWGV+46G, Unnamed Road, Mauripur, Karachi",4.3,18,24.8753098,66.9430842,ChIJ1yvwnAgVsz4RAJBy30F4ZQY,restaurant_images/ChIJ1yvwnAgVsz4RAJBy30F4ZQY.jpg
Marine Drive,"Hawks Bay Road, Grax Colony, Karachi",4,2,24.8673136,66.9333025,ChIJmz-5rngVsz4Rruy_aXTCITM,restaurant_images/ChIJmz-5rngVsz4Rruy_aXTCITM.jpg
Midnight Cafe,"Hawks Bay Road, Grax Village, Karachi",4,17,24.8676617,66.933204,ChIJO2zkRS8Vsz4RC-yZLHmD7DI,restaurant_images/ChIJO2zkRS8Vsz4RC-yZLHmD7DI.jpg
Pakistan Burger and fastfood,Pakistan fastfoor grax,5,2,24.8676763,66.9328039,ChIJIWTefo8Vsz4RM3_0770bm7M,restaurant_images/ChIJIWTefo8Vsz4RM3_0770bm7M.jpg
Cafe Al Qadri Hotel? ???? ??????? ????,"Mauripur Road, Grex Colony, Kemari Town, Keamari, Karachi",3.9,227,24.8677105,66.9323482,ChIJ4VpNslwUsz4R6ZRPbmhIQGg,restaurant_images/ChIJ4VpNslwUsz4R6ZRPbmhIQGg.jpg
AAA Chicken Shop,"VW9M+G45, Mauripur, Karachi",5,2,24.868766,66.932865,ChIJl7RsHgAVsz4RbFQ5bUwKfM0,restaurant_images/ChIJl7RsHgAVsz4RbFQ5bUwKfM0.jpg
MAJEED BAHAR RESTAURANT,"Majeed Bahar Restaurant, Grax Colony, Karachi",4.4,43,24.8679666,66.9318194,ChIJ0zT2xTkVsz4RqcMI-QYrL88,restaurant_images/ChIJ0zT2xTkVsz4RqcMI-QYrL88.jpg
Airmen Mess Masroor,"VWJX+3W8, Mauripur, Karachi",3.9,56,24.88015,66.9498398,ChIJaVXN7fYVsz4RdhfjPieIbBY,restaurant_images/ChIJaVXN7fYVsz4RdhfjPieIbBY.jpg
Paf Masroor Base,"VWHR+594, PAF Masroor Road, Mauripur, Karachi",4.5,65,24.8778809,66.9409445,ChIJY6dYAGUVsz4RFqPsKd6AD1w,restaurant_images/ChIJY6dYAGUVsz4RFqPsKd6AD1w.jpg
Al Fareed Food Centre ??????? ???? ?????,"Gulbai, Karachi",4,6,24.8758211,66.9679714,ChIJvYHmUxYVsz4RPopCvL22zok,restaurant_images/ChIJvYHmUxYVsz4RPopCvL22zok.jpg
Cafe Dil Nasheen ???? ??????,"VXG9+C4G, Estate Avenue, Gulbai Sindh Industrial Trading Estate, Karachi",4,194,24.8760643,66.96783,ChIJuR3iYaQVsz4RtCm0LaaCBRs,restaurant_images/ChIJuR3iYaQVsz4RtCm0LaaCBRs.jpg
Shehzada Sea Foods,"Unnamed Road, Machar Colony, Karachi",4.5,11,24.8597593,66.9748776,ChIJgTmu3eoVsz4RfZ3vJ2spz5U,restaurant_images/ChIJgTmu3eoVsz4RfZ3vJ2spz5U.jpg
Jamil burger and fast food,"VXG9+C4W, Gulbai Sindh Industrial Trading Estate, Karachi",3.9,11,24.8761064,66.967837,ChIJnUuL6v4Vsz4RIP2hnk_6DtA,restaurant_images/ChIJnUuL6v4Vsz4RIP2hnk_6DtA.jpg
Al-Madina Biryani,"VXG9+G43, Gulbai, Karachi",4.8,4,24.8762345,66.9677421,ChIJ7bQEWMcVsz4RbdTDoYdPlZ0,restaurant_images/ChIJ7bQEWMcVsz4RbdTDoYdPlZ0.jpg
Sharjah food court ????? ??? ????,"VXFC+M54, Mauripur Road, Mauripur, Karachi",2,2,24.8741256,66.9704605,ChIJOULpGgAVsz4RZWBL4Ty2B9U,restaurant_images/ChIJOULpGgAVsz4RZWBL4Ty2B9U.jpg
Maju Burgers Corner,"VXM2+829, Mauripur, Karachi",5,2,24.8833345,66.9500887,ChIJG7QE-8sVsz4Reazkgp2XuZg,restaurant_images/ChIJG7QE-8sVsz4Reazkgp2XuZg.jpg
Food Street Masroor,"VWMX+9WV, PAF Masroor Road, Keamari, Karachi",3.9,14,24.8834912,66.9498124,ChIJLckbd-wVsz4RYzbL5AAmp_M,restaurant_images/ChIJLckbd-wVsz4RYzbL5AAmp_M.jpg
Fisel chiken wola,"VX7H+J74, Machar Colony, Karachi",5,1,24.8640121,66.9781923,ChIJeaQ8DAAVsz4RWmlOi1KzgDA,restaurant_images/ChIJeaQ8DAAVsz4RWmlOi1KzgDA.jpg
Kala Panic 6 number,"VX2G+7F4, Road, Askari 2 Cantonment, Karachi",,,24.8506483,66.9762033,ChIJm4lP0TkVsz4Renrb_0aUulQ,restaurant_images/ChIJm4lP0TkVsz4Renrb_0aUulQ.jpg
Bona french fries,"VX7H+2WX, Machar Colony, Karachi",,,24.8626236,66.9798632,ChIJ8eLukuAVsz4RajAHLARbKXk,restaurant_images/ChIJ8eLukuAVsz4RajAHLARbKXk.jpg
Soya bariny wola,VX7J+C2P,5,2,24.863578,66.9800789,ChIJTwn9HQAVsz4REtT6UPS7bdw,restaurant_images/ChIJTwn9HQAVsz4REtT6UPS7bdw.jpg
Port Grand - Karachi,"opposite PNSC Building, Road Port Grand Food Street, West Wharf, Karachi",4.4,29972,24.8446557,66.9909129,ChIJTQOElP0Vsz4RQAzqKJupTqM,restaurant_images/ChIJTQOElP0Vsz4RQAzqKJupTqM.jpg
Pizza Max - I.I. Chundrigar,Karachi,4.2,626,24.850221,67.0044333,ChIJHbEBTAE-sz4R2F8YCzix-ws,restaurant_images/ChIJHbEBTAE-sz4R2F8YCzix-ws.jpg
KFC - I.I. Chundrigar,"Room No. 1/3 Ground Floor 74200, Muhammadi House, I.I Chundrigar Road, Seari Quarters, ?????",4.2,2949,24.8496486,67.0043963,ChIJO-PlNQE-sz4RRM9LwM4zLyM,restaurant_images/ChIJO-PlNQE-sz4RRM9LwM4zLyM.jpg
Cafe Bogie,"Near: City Station, I.I Chundrigar Road, Karachi",4,2879,24.8496488,67.0071766,ChIJ-cOtpQk-sz4RzLYqor_ibfw,restaurant_images/ChIJ-cOtpQk-sz4RzLYqor_ibfw.jpg
Food Centre | Burns Road,"V248+J6X, Main, Burns Road, Karachi",3.9,5206,24.8566055,67.0156242,ChIJYYMVbw4-sz4RZgAXazBQVqY,restaurant_images/ChIJYYMVbw4-sz4RZgAXazBQVqY.jpg
Karachi Haleem (Burns Road branch),"Pak Mansion, Burnes Road, Shahrah-e-Liaquat, Saddar Gari Khata, Karachi",4,1812,24.8567296,67.0159052,ChIJb-mnH4BAsz4RS4d0yJvZnmE,restaurant_images/ChIJb-mnH4BAsz4RS4d0yJvZnmE.jpg
Rotary? Food Park,"RXWR+5QQ, Jinnah Flyover, West Wharf, Karachi",4,26,24.8454525,66.9919782,ChIJFfDIxP0Vsz4RChRGvPmTI9E,restaurant_images/ChIJFfDIxP0Vsz4RChRGvPmTI9E.jpg
Akber Burger Point,"B Street Number G-11, Agra Taj Colony, Karachi",3.9,39,24.8719753,66.9821111,ChIJg7-WPJEVsz4RVhG-vcT4Cto,restaurant_images/ChIJg7-WPJEVsz4RVhG-vcT4Cto.jpg
"""AFRIDI INN"" Restaurant ( ?????? ?? )","Port Grand, ????? ???? ????? ??? ???, ?????",3.6,145,24.8422262,66.9894335,ChIJ19KJmQcWsz4RNgakM9DgMF4,restaurant_images/ChIJ19KJmQcWsz4RNgakM9DgMF4.jpg
Noor's Fisheries,"Karachi fish harbour, Karachi",4.2,76,24.8491714,66.9795077,ChIJwyrHkuYVsz4Rqir9QKzrkxc,restaurant_images/ChIJwyrHkuYVsz4Rqir9QKzrkxc.jpg
Sarhad Namkeen Hotel,"R2V8+6WX, near to Nomania Masjid, M. T. Khan Road, Sultanabad, Karachi",3.8,22,24.8431086,67.0173527,ChIJDy4lW-E9sz4Rb9tmAqfqif8,restaurant_images/ChIJDy4lW-E9sz4Rb9tmAqfqif8.jpg
Kabab-Ji Lebanese Restaurant,"Movenpick Hotel, Club Road, Civil Lines, Karachi",3.7,1869,24.8464316,67.0262921,ChIJA7T8At89sz4RPVWTjFh663E,restaurant_images/ChIJA7T8At89sz4RPVWTjFh663E.jpg
McDonald's,"Atrium Mall Cinemas, Karachi Cantonment, Karachi",4.1,767,24.8561401,67.0302423,ChIJr-gzOHE-sz4RedilazoFi80,restaurant_images/ChIJr-gzOHE-sz4RedilazoFi80.jpg
La Mamma,"Shapes Health Club Compound Old Railway Club, 139 McNiel Road, Cantt, Civil Lines, Karachi",4,66,24.8464667,67.0262306,ChIJA7T8At89sz4ROpohDkQ9hmY,restaurant_images/ChIJA7T8At89sz4ROpohDkQ9hmY.jpg
Fanoos Lounge,"Shapes Health Club Compound Old Railway Club, 139 McNiel Road, Cantt, Civil Lines, Karachi",4.1,64,24.846486,67.026212,ChIJA7T8At89sz4RA6_O_Cy8e4k,restaurant_images/ChIJA7T8At89sz4RA6_O_Cy8e4k.jpg
Gul Plaza Shopping Centre,"Muhammad Ali Jinnah Road, Gazdarabad, Karachi",4.2,16078,24.8647717,67.0236886,ChIJJ_xwr2w-sz4RnnDin9xw4Tk,restaurant_images/ChIJJ_xwr2w-sz4RnnDin9xw4Tk.jpg
HAROON PAKWAN CENTER,HAROON PAKWAN CENTER IN PAKISTAN,,,24.8607375,67.0011406,ChIJKSTvbwA_sz4RCMQOCllE3bA,restaurant_images/ChIJKSTvbwA_sz4RCMQOCllE3bA.jpg
Cafe Chai Sky,"V262+7FR, Karachi",,,24.8607343,67.0011364,ChIJB7usBAA_sz4RI7vMtCBxKj0,restaurant_images/ChIJB7usBAA_sz4RI7vMtCBxKj0.jpg
Malik Foods,"Gulistan e kazim, 6th Street, Karachi",,,24.8607343,67.0011364,ChIJf4Gogkw_sz4RHJS93-tS-Nk,restaurant_images/ChIJf4Gogkw_sz4RHJS93-tS-Nk.jpg
Mehfil Chai,"Mirchili restaurant 61, Karachi",5,1,24.8607343,67.0011364,ChIJu__BAy4_sz4Rml3tFsnlydI,restaurant_images/ChIJu__BAy4_sz4Rml3tFsnlydI.jpg
Cook Like MA,"V262+7FR, Karachi",,,24.8607343,67.0011364,ChIJ56uJZwA_sz4RJjGPXh2Tz2Y,restaurant_images/ChIJ56uJZwA_sz4RJjGPXh2Tz2Y.jpg
GHOUSIA ARABIC SHAWARMA,"V262+7FR, Karachi",5,2,24.8607343,67.0011364,ChIJ1Q3ABQA_sz4RiW-TmIQ_BRM,restaurant_images/ChIJ1Q3ABQA_sz4RiW-TmIQ_BRM.jpg
Best food in hyderabad,"HOUSE NUMBER 18C, GARDEN OFFICER COLONY, Karachi",4.5,2,24.8607343,67.0011364,ChIJTVAOKQg_sz4Rk4bXIATABeA,restaurant_images/ChIJTVAOKQg_sz4Rk4bXIATABeA.jpg
Shahi kitchen,"house no. R 529, Karachi",4.3,12,24.8607343,67.0011364,ChIJ_zcxBGk_sz4RPoHZGuKmJfg,restaurant_images/ChIJ_zcxBGk_sz4RPoHZGuKmJfg.jpg
Zasa Chinese inn,"B 103, Karachi",4.7,3,24.8607343,67.0011364,ChIJP57UklU_sz4RncgQwW2dpvA,restaurant_images/ChIJP57UklU_sz4RncgQwW2dpvA.jpg
Baba Fareed Fast Food Center,"Plot 1082, Karachi",3,1,24.8607343,67.0011364,ChIJbWd344xBsz4RMkPlEDQxSi8,restaurant_images/ChIJbWd344xBsz4RMkPlEDQxSi8.jpg
MAK'S BURGER FAST FOOD,"opposite PSO patrol pump sector, shop no 4, Rays terrace 1, opposite PSO patrol pump sector, Karachi",,,24.8607343,67.0011364,ChIJy2pRSy0_sz4R_5Zyaqtrtis,restaurant_images/ChIJy2pRSy0_sz4R_5Zyaqtrtis.jpg
A.H Foods,"Shop number G26, Karachi",4.2,5,24.8607343,67.0011364,ChIJSwSR838xsz4ROiM8B5qNvEE,restaurant_images/ChIJSwSR838xsz4ROiM8B5qNvEE.jpg
Avari Towers Karachi,"242, Avari Towers Main Building, 244 Fatima Jinnah Road, Karachi Cantonment, Karachi",4.7,50941,24.8527202,67.0322979,ChIJlTbXrnc-sz4RhqjBjTxisks,restaurant_images/ChIJlTbXrnc-sz4RhqjBjTxisks.jpg
Gloria Jean's Coffees SMCHS,"V354+8Q6, Sindhi Muslim Cooperative Housing Society Block A Sindhi Muslim CHS (SMCHS), Karachi",4.1,4619,24.863929,67.0549433,ChIJuzDim4U-sz4R2evsZAalCdE,restaurant_images/ChIJuzDim4U-sz4R2evsZAalCdE.jpg
New Little China Restaurant,"Najeeb Corner, 172/P Tariq Road, Block 2 P.E.C.H.S., Karachi",3.9,693,24.8673858,67.0576109,ChIJ3_s82o8-sz4RYV60gezTWNc,restaurant_images/ChIJ3_s82o8-sz4RYV60gezTWNc.jpg
Royal Ice & Spice,"1-C, Sindhi Muslim Cooperative Housing Society Block A, Karachi",4.1,5809,24.862927,67.0546004,ChIJHcnJuoU-sz4R8G8XI2svEdI,restaurant_images/ChIJHcnJuoU-sz4R8G8XI2svEdI.jpg
Delhi Sweets,"4A Shahra-e-Faisal, PECHS Extension Block 6 P.E.C.H.S., Karachi",4.3,4270,24.8597325,67.0615054,ChIJt3vHepw-sz4RFmofKshWU4I,restaurant_images/ChIJt3vHepw-sz4RFmofKshWU4I.jpg
Yuan Tung Restaurant,"173 Tariq Road, Block 2 P.E.C.H.S., Karachi",4.1,1774,24.8672222,67.0577778,ChIJqcU4248-sz4R07kIu9LaaBI,restaurant_images/ChIJqcU4248-sz4R07kIu9LaaBI.jpg
Al-Haaj Bundoo Khan's ?????? ????? ???,"V374+332, Captain Fareed Bukhari Shaheed Road, Block A Sindhi Muslim CHS (SMCHS), Karachi",3.8,1774,24.8626394,67.0551523,ChIJsREVr4U-sz4RRUjNt4LD7GA,restaurant_images/ChIJsREVr4U-sz4RRUjNt4LD7GA.jpg
Rehmat-e-Shereen,"S/172, main Tariq Road, P.E.C.H.S Block 2, Karachi",4.5,9441,24.8683043,67.0574311,ChIJtf4s0o8-sz4RhRQVTudg1jg,restaurant_images/ChIJtf4s0o8-sz4RhRQVTudg1jg.jpg
Indus Fumigation,"R-346, Sindhi Muslim Cooperative Housing Society Sector 8-B Abysenia Lines, Karachi",4.9,86,24.8605915,67.0508269,ChIJKxAV7YY-sz4RsMpARiHick8,restaurant_images/ChIJKxAV7YY-sz4RsMpARiHick8.jpg
Sizzlerz Cafe & Grill,"4D, 4D, Sindhi Muslim Cooperative Housing Society Block A Sindhi Muslim CHS (SMCHS), Karachi",3.8,2831,24.8627606,67.0550903,ChIJqbYfqYU-sz4RU3qF3PlquWc,restaurant_images/ChIJqbYfqYU-sz4RU3qF3PlquWc.jpg
Broadway Pizza - SMCHS,"Captain Fareed Bukhari Shaheed Road, Sindhi Muslim Cooperative Housing Society, Karachi",4.6,3732,24.8635249,67.0549364,ChIJ4eolCIU-sz4RO35plvz_T5k,restaurant_images/ChIJ4eolCIU-sz4RO35plvz_T5k.jpg
New York Coffee? ??????? ????,"V373+FX3, Ocean Mall, Main Clifton Road, Block A Sindhi Muslim CHS (SMCHS), Karachi",4.2,2171,24.8636409,67.054937,ChIJf6pMooU-sz4R4AWxenX3Fpc,restaurant_images/ChIJf6pMooU-sz4R4AWxenX3Fpc.jpg
Ginsoy - SMCHS Branch,"Captain Fareed Bukhari Shaheed Road, Sindhi Muslim Cooperative Housing Society Block A Sindhi Muslim CHS (SMCHS), Karachi",4.4,8114,24.8640325,67.0549276,ChIJ8Tu9m4U-sz4RUH9CH_9GXWk,restaurant_images/ChIJ8Tu9m4U-sz4RUH9CH_9GXWk.jpg
Bam-Bou Restaurant,"Plot A, Sabah Arcade, near Allah wala, 125 round about, Block A, Karachi",4.2,5356,24.8645912,67.0551213,ChIJF6T3g4U-sz4RIyWNt_ixzQc,restaurant_images/ChIJF6T3g4U-sz4RIyWNt_ixzQc.jpg
Eastern Foods,"opposite Rahmania Masjid, next to Islamic Shehed Center, Tariq Road, Karachi",4.1,111,24.8666804,67.0569456,ChIJk5hqnZw-sz4RyAvg1gcGsnw,restaurant_images/ChIJk5hqnZw-sz4RyAvg1gcGsnw.jpg
Mr.Chinese food,"House 125-B, near Minsa water plant, Block B street 9, Sindhi Muslim Cooperative Housing Society Block B Sindhi Muslim CHS (SMCHS), Karachi",4.1,83,24.8549402,67.0573254,ChIJT0524YI-sz4R1ejr-eO4Fyw,restaurant_images/ChIJT0524YI-sz4R1ejr-eO4Fyw.jpg
Pizza Max - Tariq Road,"744 Tariq Road, P.E.C.H.S Block 2, Karachi",4.3,3003,24.8674531,67.0573483,ChIJpfreHpI-sz4RDtqD3-v5dus,restaurant_images/ChIJpfreHpI-sz4RDtqD3-v5dus.jpg
Me'nu Cafe,"V367+9QV, Block 6 P.E.C.H.S., Karachi",3.9,15,24.8609966,67.064417,ChIJ6-NqVZk-sz4RWwR3zyR4Ivk,restaurant_images/ChIJ6-NqVZk-sz4RWwR3zyR4Ivk.jpg
Food Junction ambala,"opposite ambala bakery, 62 R, opposite ambala bakery, Karachi",3.9,756,24.8547304,67.0672386,ChIJLwSZmiA8sz4RaD5LIx5m1Ic,restaurant_images/ChIJLwSZmiA8sz4RaD5LIx5m1Ic.jpg
My Kitchen (Main Branch),"Bus Stop, Lal Kothi (house), Shahrah-e-Faisal Service Road South, Block-6 P.E.C.H.S., Karachi",3.9,987,24.8618787,67.0701224,ChIJ0W7Zqpg-sz4R77praAlDWX4,restaurant_images/ChIJ0W7Zqpg-sz4R77praAlDWX4.jpg
Chullu Kabab Sistani,"opposite Petrol Pump, Doctor Daud Pota Road, ?????",4.1,4741,24.8567746,67.0314352,ChIJxQZnIHE-sz4RSkypMHhKjMY,restaurant_images/ChIJxQZnIHE-sz4RSkypMHhKjMY.jpg
Student Biryani,"Van Street, Karachi",3.8,8829,24.864935,67.0314737,ChIJ9wAAx28-sz4RBF-c78gMnHE,restaurant_images/ChIJ9wAAx28-sz4RBF-c78gMnHE.jpg
KBC Restaurant (?? ?? ?? ?????????),"Jeddah Center, Raja Ghazanfar Ali Road, Saddar Karachi Cantonment, Karachi",4,4090,24.8564192,67.0309227,ChIJHeV6PHE-sz4RghK2HigNEJs,restaurant_images/ChIJHeV6PHE-sz4RghK2HigNEJs.jpg
Al-Haaj Bundoo Khan's Restaurant,"V29J+JQV, Muhammad Ali Jinnah Road, Central Jacob Lines, Karachi",3.6,115,24.8691032,67.0319222,ChIJsyq-_Gg-sz4Ry-KGTacpX8A,restaurant_images/ChIJsyq-_Gg-sz4Ry-KGTacpX8A.jpg
WOW - World Of Wraps,"V24J+C5G, Karachi Cantonment, Karachi",3.7,22,24.8560578,67.0304497,ChIJk9WyMHE-sz4Rvdl2_GEL1UA,restaurant_images/ChIJk9WyMHE-sz4Rvdl2_GEL1UA.jpg
McDonald's,"R3R6+G5H, N Circular Avenue, Main Korangi Road, D.H.A. Phase 1 Phase 1 Defence Housing Authority, Karachi",4.2,6093,24.8413098,67.0604989,ChIJV4XL8To8sz4R8_t1e2vYItU,restaurant_images/ChIJV4XL8To8sz4R8_t1e2vYItU.jpg
Shaikh Abdul Ghaffar Kabab House,"next to Riaz Masjid, Dehli Saudagar Road No. 4, Delhi Mercantile Society P.E.C.H.S., Karachi",4.4,12799,24.8765964,67.0659988,ChIJex-mwJQ-sz4RhOSDCEOFoZY,restaurant_images/ChIJex-mwJQ-sz4RhOSDCEOFoZY.jpg
Yameen Haleem Merchant,"V2GM+8VC, Britto Road, Parsi Colony Saddar, Karachi",4.1,122,24.8758026,67.0346362,ChIJORxKtkQ-sz4RDg2S7sefE2I,restaurant_images/ChIJORxKtkQ-sz4RDg2S7sefE2I.jpg
De Pizzano,"V2HP+5G2, Mirza Adam Khan Road, Soldier Bazaar Catholic Colony, Karachi",4,467,24.8778758,67.0362611,ChIJ56ICl1w-sz4RXGchjqtcVVU,restaurant_images/ChIJ56ICl1w-sz4RXGchjqtcVVU.jpg
Hanifia - New Town,"Jama Masjid, Shop No. 14 New Town, Jamshed Quarters Allama Binori Town, Karachi",4,1742,24.8811393,67.0419788,ChIJq0K0FVk-sz4RWItuNKx5kr4,restaurant_images/ChIJq0K0FVk-sz4RWItuNKx5kr4.jpg
Waheed B.B.Q,"11th Street North, Azam Basti, Karachi",4.4,137,24.8455505,67.0688683,ChIJG-F7uCI8sz4RXNVwbkjLFuI,restaurant_images/ChIJG-F7uCI8sz4RXNVwbkjLFuI.jpg
14th Street Pizza Co. | Shaheed-e-Millat Road,"Shaheed-e-Millat Road, road, Karachi",4.3,1072,24.8804577,67.0630209,ChIJXR1VYOw-sz4Rao3SmJpzZnE,restaurant_images/ChIJXR1VYOw-sz4Rao3SmJpzZnE.jpg
Mehboob Food Center,"Rodrigues Road, Parsi Colony Saddar, Karachi",4.2,1015,24.8755045,67.0319005,ChIJk4HGA0M-sz4RVmtXSjc4hPU,restaurant_images/ChIJk4HGA0M-sz4RVmtXSjc4hPU.jpg
Al Bustan Restaurant,"Club Road, Civil Lines, Karachi",4.1,770,24.8487515,67.0285749,ChIJA7T8At89sz4RXMLdxIZhVJI,restaurant_images/ChIJA7T8At89sz4RXMLdxIZhVJI.jpg
Xander's,"Tipu Sultan Road, P.E.C.H.S., Karachi",4.2,8294,24.8663903,67.0777874,ChIJX8sX2iU_sz4RkQSMFLN8lng,restaurant_images/ChIJX8sX2iU_sz4RkQSMFLN8lng.jpg
Yadgar Fish,"opposite Yadgar Fish, 3 Jamshed Road, Government Quarters Jail Road, Karachi",3.8,6113,24.8860176,67.0506243,ChIJ37a7aPc-sz4RiLVPgNHRiFs,restaurant_images/ChIJ37a7aPc-sz4RiLVPgNHRiFs.jpg
Food Break,"Shop # 1, Al Mairaj Manzil, Central Commercial Area, Oppt Rajoo Ice Cream, Bahadurabad Bahadur Yar Jang CHS, Karachi",4.1,1761,24.8816902,67.0675277,ChIJAdx-Uuo-sz4RsvU7qE02HCU,restaurant_images/ChIJAdx-Uuo-sz4RsvU7qE02HCU.jpg
Yellow Potato,"V3M8+3H6, BMCHS Sharafabad, Karachi",4.3,39,24.8826671,67.0663764,ChIJn1Gcxus-sz4RD3QNFIBdsTM,restaurant_images/ChIJn1Gcxus-sz4RD3QNFIBdsTM.jpg
Zameer Ansari BBQ & Grill,"Alamgir Road, Bahadur Yar Jang CHS, Karachi",4.1,4395,24.8793628,67.0721743,ChIJM-3Rc8A-sz4R-_IoziXrYNY,restaurant_images/ChIJM-3Rc8A-sz4R-_IoziXrYNY.jpg
Baklava Palace,"Plot # 23, Al-Arz Arcade, Shop # G-3, Karachi Memon Society Sharafabad, Karachi",4.2,540,24.8853842,67.0619051,ChIJB7qw_e4-sz4RLpRUSiaqstw,restaurant_images/ChIJB7qw_e4-sz4RLpRUSiaqstw.jpg
Maliks,"opp. Alamgir Masjid, 331-A, DMCHS, Block - 3, opp. ??????? ????, Alamgir Road, Bahadur Yar Jang CHS, Karachi",4.1,5675,24.8797138,67.0715946,ChIJiS13tu4-sz4RfiwJwE2x3dU,restaurant_images/ChIJiS13tu4-sz4RfiwJwE2x3dU.jpg
Broadway Pizza - Bahdurabad,"situated in Bihar Muslim Cooperate Housing Society Limited, Plot No. 15/177. Survey Sheet 35, A3 Bahadur Shah Zafar Road, P/1 Block 3, Karachi",4.5,3794,24.8829885,67.0675898,ChIJWSfKses-sz4RLcOjyAqLk-k,restaurant_images/ChIJWSfKses-sz4RLcOjyAqLk-k.jpg
McDonald's,"Plot # 13, Shop # K-4, Dolmen Mall, 3 Tariq Road, Block 3 Delhi CHS P.E.C.H.S., Karachi",4.1,6004,24.8768596,67.0626373,ChIJnz7kh48-sz4Rx_MLqp3epT0,restaurant_images/ChIJnz7kh48-sz4Rx_MLqp3epT0.jpg
Del Frio - SMCHS,"103 A, Al Zaiby Arcade, ????? ???? ??????? Block A Sindhi Muslim CHS (SMCHS), ?????",4.1,5146,24.8636023,67.0546906,ChIJ1X3mmYU-sz4RFV8g_BuvKFA,restaurant_images/ChIJ1X3mmYU-sz4RFV8g_BuvKFA.jpg
Noorani Kabab House. Karachi,"Shahrah-e-Qaideen, P.E.C.H.S., Karachi",4.2,10296,24.8677616,67.0524597,ChIJBSGh1I4-sz4RNoyxJtgc-QE,restaurant_images/ChIJBSGh1I4-sz4RNoyxJtgc-QE.jpg
United King Sharfabad,"Plot-64, Ibrahim Residence, CP Berar CHS, 3 Alamgir Road, Sharfabad, Karachi",4.3,4457,24.8845803,67.0631342,ChIJQc4rx-4-sz4Rx888wS2kEJQ,restaurant_images/ChIJQc4rx-4-sz4Rx888wS2kEJQ.jpg
Bismillah Muhammadi Pakwan Center,"V362+FCQ, Abyssinia Lines Abysenia Lines, Karachi",4.1,265,24.8612056,67.0511111,ChIJO6zwmtM_sz4Re5zM1WNKFVA,restaurant_images/ChIJO6zwmtM_sz4Re5zM1WNKFVA.jpg
Laziz Biryani Center,"V362+FCC, Unnamed Road, Abyssinia Lines Abysenia Lines, Karachi",4.2,25,24.8611948,67.0510238,ChIJF8ZCFyA_sz4RQA7yQdGEMv4,restaurant_images/ChIJF8ZCFyA_sz4RQA7yQdGEMv4.jpg
Imran sweets,"V362+C48, Unnamed Road, Abyssinia Lines Abysenia Lines, Karachi",4,5,24.8610589,67.0501996,ChIJR87F2Mo_sz4R54jBkdmJEn4,restaurant_images/ChIJR87F2Mo_sz4R54jBkdmJEn4.jpg
LalQila Restaurant Karachi,"10/A, M.A.C.H.S, Main Shahra-e-Faisal, Mohammad Ali Society Muhammad Ali Chs (Machs), Karachi",4.4,23659,24.8722755,67.0907754,ChIJ226CXrI-sz4RfSpsoO8Mg_g,restaurant_images/ChIJ226CXrI-sz4RfSpsoO8Mg_g.jpg
Chillee'z Restaurant,"100 Tipu Sultan Road, Mohammad Ali Society PECHS Extension Muhammad Ali Chs (Machs), Karachi",4,3704,24.8746194,67.0879993,ChIJz7_HX7E-sz4RYWFAlWiZQ08,restaurant_images/ChIJz7_HX7E-sz4RYWFAlWiZQ08.jpg
Pizza Mars,"TOTAL Petrol Pump? Block 9 K.A.E.C?, H.S Baloch Colony Flyover, Block 6 KAECHS, Karachi",4.1,528,24.8621939,67.0867835,ChIJtZDqcqk-sz4RZph44PC4ShU,restaurant_images/ChIJtZDqcqk-sz4RZph44PC4ShU.jpg
Rosati Bistro,"Main, B 12 Shahra-e-Faisal, Karsaz KDA Scheme 1, Karachi",4,5672,24.8752985,67.0951191,ChIJx3uGw0w5sz4RAMIyti6totY,restaurant_images/ChIJx3uGw0w5sz4RAMIyti6totY.jpg
Pizza Bite - KAECHS branch,"V36J+CJP, Block 4 KAECHS, Karachi",3.9,136,24.8610858,67.0815887,ChIJ-QTGM6Y-sz4R5WitRTQEzf4,restaurant_images/ChIJ-QTGM6Y-sz4R5WitRTQEzf4.jpg
KFC - MACHS,"Plot No. 35/F (6/B) Old M.A, C.H.S Muhammad Ali Chs (Machs), Karachi",4.1,1888,24.8752964,67.0881258,ChIJsye34rM-sz4Rbc4CT1GiTkE,restaurant_images/ChIJsye34rM-sz4Rbc4CT1GiTkE.jpg
KUSH,"Plot 9-B, commercial Area, karachi, Mohammad Ali Society, Karachi",3.2,23,24.875611,67.088113,ChIJJ0OGc7Y-sz4R1fsHl-Lyz30,restaurant_images/ChIJJ0OGc7Y-sz4R1fsHl-Lyz30.jpg
OPTP - Tipu Sultan,"Shop 4/5, Sumiya Elite MCHS, Shaheed-e-Millat Road, Karachi Memon Co-operative Housing Society Jinnah Housing Society, Karachi",4,1026,24.8705648,67.0797608,ChIJmRukUrE-sz4R-f_DsxKSl1s,restaurant_images/ChIJmRukUrE-sz4R-f_DsxKSl1s.jpg
Del Frio,"Subway Roundabout, Tipu Sultan Road, KDA Scheme#1, Karachi",3.9,1106,24.8797886,67.0874012,ChIJU5mIbbY-sz4RZxAAPSNBda8,restaurant_images/ChIJU5mIbbY-sz4RZxAAPSNBda8.jpg
Kaybees MACHS,"Maulana Muhammad Ali, 8-F Ghazi Salahuddin Road, Johar Memorial Cooperative Housing Society, MAMCHS",4.1,17442,24.8753813,67.0877455,ChIJ2-Q7UbE-sz4R3wZiWJwyxvU,restaurant_images/ChIJ2-Q7UbE-sz4R3wZiWJwyxvU.jpg
Dunkin' - Tipu Sultan,"Bungalow #2, Block 7, 8 Tipu Sultan Road, Karachi Memon Co-operative Housing Society Karachi Memon Society P.E.C.H.S., Karachi",4.2,5224,24.8655568,67.0775095,ChIJa2peiqQ-sz4R_IyO15MmiY8,restaurant_images/ChIJa2peiqQ-sz4R_IyO15MmiY8.jpg
winter Land Cafe,"Winter Land Paf Museum, Shahra-e-Faisal, Faisal Cantonment, Karachi",4.2,35,24.8679914,67.0961455,ChIJEw8PfZo5sz4RmTRJWuMDzIs,restaurant_images/ChIJEw8PfZo5sz4RmTRJWuMDzIs.jpg
Kashi Paint,"Pakistan Church, opposite Karachi, Kashmir Colony Double Road, Karachi",,,24.8629038,67.0901812,ChIJZZdN9bQ9sz4R9V-Ab7zac_g,restaurant_images/ChIJZZdN9bQ9sz4R9V-Ab7zac_g.jpg
Deli Malik Fusion,"PAF, Falcon Plaza, Roof Top, Falcon Complex Faisal, Karachi",5,3,24.8636198,67.0897242,ChIJVaxFwkE_sz4RTUTqdnQY_KU,restaurant_images/ChIJVaxFwkE_sz4RTUTqdnQY_KU.jpg
CHHANGZALA DESSERTS & CATERS,"Street Number 18, Sector I Sector I Manzoor Colony, Karachi",4.5,8,24.8580661,67.0895669,ChIJn7lWhNU9sz4Rha5KoauDxvk,restaurant_images/ChIJn7lWhNU9sz4Rha5KoauDxvk.jpg
Butt Tikka,"V35Q+RH8, Baloch Colony Flyover, Jinnah Housing Society P.E.C.H.S., Karachi",5,2,24.8595413,67.0889622,ChIJA3ZzBQA_sz4RY-MjgCunjdc,restaurant_images/ChIJA3ZzBQA_sz4RY-MjgCunjdc.jpg
Ruby ka kitchen,"House#432 street#16 manzoor colony, I sector I, Karachi",,,24.8582362,67.088918,ChIJWc-LhA49sz4Rc0LAMaXUl5A,restaurant_images/ChIJWc-LhA49sz4Rc0LAMaXUl5A.jpg
Kashmir Cafe,"V34Q+MQJ, Sector I Manzoor Colony, Karachi",4.2,173,24.856705,67.0893803,ChIJO8ttnwE8sz4RURp9OuyFoRw,restaurant_images/ChIJO8ttnwE8sz4RURp9OuyFoRw.jpg
Ghosia Catering Services,"V34Q+HMM, Manzoor Colony, Karachi",4.5,14,24.8564589,67.0891862,ChIJQ4JpgVY9sz4R9vLKhVLUZuM,restaurant_images/ChIJQ4JpgVY9sz4R9vLKhVLUZuM.jpg
Chiniot Fazal Pakwan center,"Lucky Afridi Road, Manzoor Colony, Karachi",4.5,4,24.8563111,67.08891,ChIJ_57vIHU9sz4RKXQ_0ZR4ZxI,restaurant_images/ChIJ_57vIHU9sz4RKXQ_0ZR4ZxI.jpg
Dessert Bar Karachi,"Manzoor, 11 I, Colony, Karachi",5,7,24.8565727,67.0885153,ChIJS_qtj_89sz4RPcFTYs3ztng,restaurant_images/ChIJS_qtj_89sz4RPcFTYs3ztng.jpg
Quetta Bilal Hotel,"V34Q+GC4, Manzoor Colony Sector I Manzoor Colony, Karachi",4.2,72,24.8562645,67.088573,ChIJ63jofgE8sz4Rfg7x3Iw3q3M,restaurant_images/ChIJ63jofgE8sz4Rfg7x3Iw3q3M.jpg
Event Delights Karachi,"i, 291 Street Number 10",5,11,24.8563295,67.088528,ChIJZ7Jr7G09sz4RzwTleggnGSQ,restaurant_images/ChIJZ7Jr7G09sz4RzwTleggnGSQ.jpg
Eagles Nest,"V3CW+P5V, Faisal Cantonment, Karachi",3.7,3,24.8718701,67.0954189,ChIJodpQFIY5sz4RSZ9ndMRtIs0,restaurant_images/ChIJodpQFIY5sz4RSZ9ndMRtIs0.jpg
Good Crispy French Fries,"V3CW+Q4Q, Faisal Cantonment, Karachi",3.9,14,24.8719578,67.0953582,ChIJy51EXE05sz4Rhl_6_2vYXwE,restaurant_images/ChIJy51EXE05sz4Rhl_6_2vYXwE.jpg
Multi cuisines,"V34Q+M76, Sector I Manzoor Colony, Karachi",1,1,24.8566539,67.0881314,ChIJ9YF0EZ09sz4RZkaw_mpYlAY,restaurant_images/ChIJ9YF0EZ09sz4RZkaw_mpYlAY.jpg
SARFARAZ PAKWAN CENTER,"V425+7V2, Mehran Town Sector 6 D Korangi, Karachi",,,24.850645,67.1096551,ChIJjT1JZVc7sz4RVCUYHTd649I,restaurant_images/ChIJjT1JZVc7sz4RVCUYHTd649I.jpg
Aryana Foods,"Street Number 8, Sector I Manzoor Colony, Karachi",4,3,24.8562097,67.0879959,ChIJl8Bztkk9sz4R7pE8avq6zt8,restaurant_images/ChIJl8Bztkk9sz4R7pE8avq6zt8.jpg
Break Fast service,"V36P+3QH, Mehmoodabad, Karachi",3.2,5,24.8601971,67.086979,ChIJcRdCGwA_sz4RTz0Vgb0B3NM,restaurant_images/ChIJcRdCGwA_sz4RTz0Vgb0B3NM.jpg
Daraz cafe area,"V447+JVW, Mehran Town Korangi, Karachi",3.7,3,24.8566089,67.1146983,ChIJZadQnGo7sz4RXX8fbRGmRFc,restaurant_images/ChIJZadQnGo7sz4RXX8fbRGmRFc.jpg
Pizza Party (KAECHS),"Shop # 3 R, 83, Karachi Administration Employees Housing Society Block 9, Karachi",4.9,9,24.8616237,67.0867828,ChIJmzK-UQA_sz4RIjhMmprMM8k,restaurant_images/ChIJmzK-UQA_sz4RIjhMmprMM8k.jpg
Chatkhara Burger Poaint,"V35P+XJ6, 7/4, Karachi Administration Employees Housing Society Block 9 KAECHS, Karachi",5,1,24.8599228,67.0865275,ChIJ34v80r8_sz4RX_GGk5xEtI0,restaurant_images/ChIJ34v80r8_sz4RX_GGk5xEtI0.jpg
Al Barkat Murgh Cholay,"473-A Mehmoodabad Karachi 75460 Mehmoodabad Road, Mehmoodabad, Karachi",4,1045,24.8596799,67.0864775,ChIJkwUdw6k-sz4R5V9fIicwQs4,restaurant_images/ChIJkwUdw6k-sz4R5V9fIicwQs4.jpg
????????? ?????? ?????,"V34P+7X3, Street Number 4, Manzoor Colony Sector I, Karachi",,,24.855646,67.0874215,ChIJz6YKNgA_sz4ReKlDscHdDzQ,restaurant_images/ChIJz6YKNgA_sz4ReKlDscHdDzQ.jpg
The Food Pilau,"V35P+WG3, Karachi Administration Employees Housing Society Block 8 KAECHS, Karachi",4.7,9,24.8597668,67.0862931,ChIJl1Zls1o_sz4RIxfo12Rmp0o,restaurant_images/ChIJl1Zls1o_sz4RIxfo12Rmp0o.jpg
New Quetta hotel,"V34P+5WQ, Lucky Afridi Road, Manzoor Colony, Karachi",5,4,24.8554717,67.0873661,ChIJAzQanMI9sz4RJvv58Af3fDU,restaurant_images/ChIJAzQanMI9sz4RJvv58Af3fDU.jpg
Abbasi chicken shop,"V35P+HG7, Mehmoodabad Mehmoodabad, Karachi",4.5,11,24.8589031,67.0862996,ChIJOWb5Jl4_sz4Rq9BGMKKSmxo,restaurant_images/ChIJOWb5Jl4_sz4Rq9BGMKKSmxo.jpg
Quetta Al Baghdad Hotel ?????? ???????? ????,"R4W3+WJM, Mehran Town Sector 6 E Korangi, Karachi",3.8,16,24.8473402,67.104057,ChIJd8HeE7A7sz4Rzd6LAa2CZfQ,restaurant_images/ChIJd8HeE7A7sz4Rzd6LAa2CZfQ.jpg
Billu bhai hotel,"Lucky Afridi Road, Karachi",4.3,20,24.8553424,67.0872583,ChIJH4_u-UM9sz4RAUWDl4oQ12w,restaurant_images/ChIJH4_u-UM9sz4RAUWDl4oQ12w.jpg
Masha Allah Students Biryani And Pakwan Center,"V35P+QFJ, Mehmoodabad Road, Karachi Administration Employees Housing Society Block 8 Mehmoodabad, Karachi",4.5,108,24.8595182,67.0858873,ChIJ7fW7aQA_sz4RwFvzPlwQHYE,restaurant_images/ChIJ7fW7aQA_sz4RwFvzPlwQHYE.jpg
United Biryani and Fast Food,"K, 19 14 Main Korangi Industrial Road, Sherabad Colony Sector 36 A Landhi Town, Karachi",4.1,483,24.8416037,67.1645468,ChIJQ7ewbkI6sz4RsJLVDYELXko,restaurant_images/ChIJQ7ewbkI6sz4RsJLVDYELXko.jpg
The Food Factory Restaurant,"R4RM+QHP, Sector 17, Karachi",4.3,8,24.8419614,67.1339643,ChIJLc07W7Y7sz4Ro8mh2zzZdks,restaurant_images/ChIJLc07W7Y7sz4Ro8mh2zzZdks.jpg
Muslim Peshawari Restaurant,"Shah Faisal Colony, Karachi",4,187,24.8717507,67.1753329,ChIJketoy_85sz4R5lgGFcbomLc,restaurant_images/ChIJketoy_85sz4R5lgGFcbomLc.jpg
Pizza Max - Shah Faisal,"Main Road, Shah Faisal Colony 1 Shah Faisal Colony, Shah Faisal Town",4.3,3238,24.8848276,67.1450857,ChIJfeMjKZw5sz4RAreNwJtkO9I,restaurant_images/ChIJfeMjKZw5sz4RAreNwJtkO9I.jpg
M.K FAST FOOD RESTAURANT,"V552+XM2, Bagh-e-Korangi Bagh E Korangi Sector 10 Landhi Town, Karachi",,,24.8598968,67.1516321,ChIJKfKSSAA7sz4Rh2CK1dwJeAg,restaurant_images/ChIJKfKSSAA7sz4Rh2CK1dwJeAg.jpg
